{
  "metadata": {
    "total_cameras": 170,
    "region": "Tamil Nadu",
    "country": "India",
    "extracted_at": "2026-01-29T10:33:53.532119",
    "source": "scdb.info",
    "scraping_method": "comprehensive_grid"
  },
  "cameras": [
    {
      "id": 204797,
      "latitude": 8.904053,
      "longitude": 76.562714,
      "city": "Kollam",
      "state": "Tamil Nadu",
      "street": "Salem - Kochi - Kanyakumari Road",
      "postal_code": "691003",
      "country": "IND",
      "type": "G50",
      "camera_type": "G",
      "speed_limit": "50",
      "direction": "225",
      "status": "A",
      "rotatable": true,
      "gps_status": "+"
    },
    {
      "id": 204799,
      "latitude": 8.905294,
      "longitude": 76.56176,
      "city": "Kollam",
      "state": "Tamil Nadu",
      "street": "Salem - Kochi - Kanyakumari Road",
      "postal_code": "691003",
      "country": "IND",
      "type": "G50",
      "camera_type": "G",
      "speed_limit": "50",
      "direction": "95",
      "status": "A",
      "rotatable": true,
      "gps_status": "+"
    },
    {
      "id": 204824,
      "latitude": 8.902366,
      "longitude": 76.620239,
      "city": "Kollam",
      "state": "Tamil Nadu",
      "street": "unknown",
      "postal_code": "691001",
      "country": "IND",
      "type": "G60",
      "camera_type": "G",
      "speed_limit": "60",
      "direction": "270",
      "status": "A",
      "rotatable": true,
      "gps_status": "+"
    },
    {
      "id": 204915,
      "latitude": 8.916771,
      "longitude": 76.63253,
      "city": "Kollam",
      "state": "Tamil Nadu",
      "street": "Karikode- Kuttichira Road",
      "postal_code": "691001",
      "country": "IND",
      "type": "G80",
      "camera_type": "G",
      "speed_limit": "80",
      "direction": "100",
      "status": "A",
      "rotatable": true,
      "gps_status": "+"
    },
    {
      "id": 204757,
      "latitude": 8.919783,
      "longitude": 76.676147,
      "city": "Kundara",
      "state": "Tamil Nadu",
      "street": "Kundara - Kottiyam Road",
      "postal_code": "691576",
      "country": "IND",
      "type": "G40",
      "camera_type": "G",
      "speed_limit": "40",
      "direction": "105",
      "status": "A",
      "rotatable": true,
      "gps_status": "+"
    },
    {
      "id": 185116,
      "latitude": 8.90656,
      "longitude": 76.762321,
      "city": "Kerala",
      "state": "Tamil Nadu",
      "street": "Oyur - Kottarakkara",
      "postal_code": "691537",
      "country": "IND",
      "type": "G50",
      "camera_type": "G",
      "speed_limit": "50",
      "direction": "175",
      "status": "A",
      "rotatable": true,
      "gps_status": "+"
    },
    {
      "id": 184642,
      "latitude": 8.903861,
      "longitude": 77.057442,
      "city": "Kerala",
      "state": "Tamil Nadu",
      "street": "Thiruvanathapuram - Thenmala Road",
      "postal_code": "691310",
      "country": "IND",
      "type": "G80",
      "camera_type": "G",
      "speed_limit": "80",
      "direction": "305",
      "status": "A",
      "rotatable": true,
      "gps_status": "+"
    },
    {
      "id": 204871,
      "latitude": 8.922013,
      "longitude": 76.582474,
      "city": "Kollam",
      "state": "Tamil Nadu",
      "street": "Kollam Bypass",
      "postal_code": "691319",
      "country": "IND",
      "type": "G60",
      "camera_type": "G",
      "speed_limit": "60",
      "direction": "335",
      "status": "A",
      "rotatable": true,
      "gps_status": "+"
    },
    {
      "id": 204909,
      "latitude": 8.936752,
      "longitude": 76.613342,
      "city": "Anchalummood",
      "state": "Tamil Nadu",
      "street": "Kollam - Teni Highway",
      "postal_code": "691606",
      "country": "IND",
      "type": "G80",
      "camera_type": "G",
      "speed_limit": "80",
      "direction": "35",
      "status": "A",
      "rotatable": true,
      "gps_status": "+"
    },
    {
      "id": 204916,
      "latitude": 8.92385,
      "longitude": 76.63678,
      "city": "Kundara",
      "state": "Tamil Nadu",
      "street": "NH744",
      "postal_code": "691014",
      "country": "IND",
      "type": "G80",
      "camera_type": "G",
      "speed_limit": "80",
      "direction": "245",
      "status": "A",
      "rotatable": true,
      "gps_status": "+"
    },
    {
      "id": 185064,
      "latitude": 8.924828,
      "longitude": 76.736214,
      "city": "Kerala",
      "state": "Tamil Nadu",
      "street": "unknown",
      "postal_code": "691512",
      "country": "IND",
      "type": "G50",
      "camera_type": "G",
      "speed_limit": "50",
      "direction": "330",
      "status": "A",
      "rotatable": true,
      "gps_status": "+"
    },
    {
      "id": 184967,
      "latitude": 8.92766,
      "longitude": 76.9133,
      "city": "Ayoor",
      "state": "Tamil Nadu",
      "street": "Ayoor - Punalur Road",
      "postal_code": "691533",
      "country": "IND",
      "type": "G50",
      "camera_type": "G",
      "speed_limit": "50",
      "direction": "200",
      "status": "A",
      "rotatable": true,
      "gps_status": "-"
    },
    {
      "id": 219326,
      "latitude": 8.9475,
      "longitude": 76.638702,
      "city": "Kollam",
      "state": "Tamil Nadu",
      "street": "Kollam - Teni Highway",
      "postal_code": "691511",
      "country": "IND",
      "type": "G80",
      "camera_type": "G",
      "speed_limit": "80",
      "direction": "25",
      "status": "A",
      "rotatable": true,
      "gps_status": "+"
    },
    {
      "id": 204866,
      "latitude": 8.948008,
      "longitude": 76.662125,
      "city": "Kundara",
      "state": "Tamil Nadu",
      "street": "NH744",
      "postal_code": "691014",
      "country": "IND",
      "type": "G70",
      "camera_type": "G",
      "speed_limit": "70",
      "direction": "170",
      "status": "A",
      "rotatable": true,
      "gps_status": "+"
    },
    {
      "id": 185108,
      "latitude": 8.945542,
      "longitude": 76.77166,
      "city": "Kerala",
      "state": "Tamil Nadu",
      "street": "Oyur - Kottarakkara",
      "postal_code": "691512",
      "country": "IND",
      "type": "G50",
      "camera_type": "G",
      "speed_limit": "50",
      "direction": "90",
      "status": "A",
      "rotatable": true,
      "gps_status": "-"
    },
    {
      "id": 194383,
      "latitude": 8.967885,
      "longitude": 77.070503,
      "city": "Thenmala",
      "state": "Tamil Nadu",
      "street": "Kollam - Ottakkal road",
      "postal_code": "691308",
      "country": "IND",
      "type": "G50",
      "camera_type": "G",
      "speed_limit": "50",
      "direction": "200",
      "status": "A",
      "rotatable": true,
      "gps_status": "+"
    },
    {
      "id": 184445,
      "latitude": 8.9777,
      "longitude": 77.151802,
      "city": "Kerala",
      "state": "Tamil Nadu",
      "street": "NH744",
      "postal_code": "691309",
      "country": "IND",
      "type": "G50",
      "camera_type": "G",
      "speed_limit": "50",
      "direction": "65",
      "status": "A",
      "rotatable": true,
      "gps_status": "+"
    },
    {
      "id": 185118,
      "latitude": 8.980699,
      "longitude": 76.721275,
      "city": "Kerala",
      "state": "Tamil Nadu",
      "street": "NH744",
      "postal_code": "691505",
      "country": "IND",
      "type": "G50",
      "camera_type": "G",
      "speed_limit": "50",
      "direction": "145",
      "status": "A",
      "rotatable": true,
      "gps_status": "+"
    },
    {
      "id": 185062,
      "latitude": 8.993025,
      "longitude": 76.792015,
      "city": "Kottarakkara",
      "state": "Tamil Nadu",
      "street": "MC Road",
      "postal_code": "691500",
      "country": "IND",
      "type": "G60",
      "camera_type": "G",
      "speed_limit": "60",
      "direction": "125",
      "status": "A",
      "rotatable": true,
      "gps_status": "+"
    },
    {
      "id": 184936,
      "latitude": 8.984273,
      "longitude": 76.805153,
      "city": "Kottarakkara",
      "state": "Tamil Nadu",
      "street": "MC Road",
      "postal_code": "691500",
      "country": "IND",
      "type": "G80",
      "camera_type": "G",
      "speed_limit": "80",
      "direction": "235",
      "status": "A",
      "rotatable": true,
      "gps_status": "+"
    },
    {
      "id": 184935,
      "latitude": 8.984321,
      "longitude": 76.805092,
      "city": "Kottarakkara",
      "state": "Tamil Nadu",
      "street": "MC Road",
      "postal_code": "691500",
      "country": "IND",
      "type": "G80",
      "camera_type": "G",
      "speed_limit": "80",
      "direction": "275",
      "status": "A",
      "rotatable": true,
      "gps_status": "+"
    },
    {
      "id": 184440,
      "latitude": 8.981,
      "longitude": 77.153099,
      "city": "Kerala",
      "state": "Tamil Nadu",
      "street": "NH744",
      "postal_code": "691309",
      "country": "IND",
      "type": "G50",
      "camera_type": "G",
      "speed_limit": "50",
      "direction": "250",
      "status": "A",
      "rotatable": true,
      "gps_status": "+"
    },
    {
      "id": 194443,
      "latitude": 9.006207,
      "longitude": 76.772156,
      "city": "Kottarakkara",
      "state": "Tamil Nadu",
      "street": "Puthoor Road",
      "postal_code": "691500",
      "country": "IND",
      "type": "G50",
      "camera_type": "G",
      "speed_limit": "50",
      "direction": "335",
      "status": "A",
      "rotatable": true,
      "gps_status": "+"
    },
    {
      "id": 184942,
      "latitude": 9.005281,
      "longitude": 76.783234,
      "city": "Kottarakkara",
      "state": "Tamil Nadu",
      "street": "NH744",
      "postal_code": "691500",
      "country": "IND",
      "type": "A",
      "camera_type": "A",
      "speed_limit": "/",
      "direction": "200",
      "status": "A",
      "rotatable": true,
      "gps_status": "+"
    },
    {
      "id": 184940,
      "latitude": 9.005419,
      "longitude": 76.783531,
      "city": "Kottarakkara",
      "state": "Tamil Nadu",
      "street": "NH744",
      "postal_code": "691500",
      "country": "IND",
      "type": "A",
      "camera_type": "A",
      "speed_limit": "/",
      "direction": "355",
      "status": "A",
      "rotatable": true,
      "gps_status": "+"
    },
    {
      "id": 184941,
      "latitude": 9.005608,
      "longitude": 76.782928,
      "city": "Kottarakkara",
      "state": "Tamil Nadu",
      "street": "NH744",
      "postal_code": "691500",
      "country": "IND",
      "type": "A",
      "camera_type": "A",
      "speed_limit": "/",
      "direction": "275",
      "status": "A",
      "rotatable": true,
      "gps_status": "+"
    },
    {
      "id": 184943,
      "latitude": 9.005802,
      "longitude": 76.783249,
      "city": "Kottarakkara",
      "state": "Tamil Nadu",
      "street": "NH744",
      "postal_code": "691500",
      "country": "IND",
      "type": "A",
      "camera_type": "A",
      "speed_limit": "/",
      "direction": "310",
      "status": "A",
      "rotatable": true,
      "gps_status": "+"
    },
    {
      "id": 175490,
      "latitude": 9.017743,
      "longitude": 76.925262,
      "city": "Punalur",
      "state": "Tamil Nadu",
      "street": "Kollam - Ottakal road",
      "postal_code": "691305",
      "country": "IND",
      "type": "G30",
      "camera_type": "G",
      "speed_limit": "30",
      "direction": "190",
      "status": "A",
      "rotatable": true,
      "gps_status": "-"
    },
    {
      "id": 204969,
      "latitude": 9.036539,
      "longitude": 76.541382,
      "city": "Kerala",
      "state": "Tamil Nadu",
      "street": "Salem - Kochi - Kanyakumari Road",
      "postal_code": "691583",
      "country": "IND",
      "type": "G80",
      "camera_type": "G",
      "speed_limit": "80",
      "direction": "20",
      "status": "A",
      "rotatable": true,
      "gps_status": "+"
    },
    {
      "id": 204758,
      "latitude": 9.024324,
      "longitude": 76.605972,
      "city": "Kerala",
      "state": "Tamil Nadu",
      "street": "Chavara Adoor Road",
      "postal_code": "690538",
      "country": "IND",
      "type": "G40",
      "camera_type": "G",
      "speed_limit": "40",
      "direction": "80",
      "status": "A",
      "rotatable": true,
      "gps_status": "+"
    },
    {
      "id": 184889,
      "latitude": 9.026256,
      "longitude": 76.850815,
      "city": "Kerala",
      "state": "Tamil Nadu",
      "street": "Kollam - Ottakal road",
      "postal_code": "691305",
      "country": "IND",
      "type": "G30",
      "camera_type": "G",
      "speed_limit": "30",
      "direction": "195",
      "status": "A",
      "rotatable": true,
      "gps_status": "+"
    },
    {
      "id": 204970,
      "latitude": 9.042319,
      "longitude": 76.584877,
      "city": "Kerala",
      "state": "Tamil Nadu",
      "street": "KARUNAGAPPALLY SASTHAMCOTTAH RD",
      "postal_code": "690569",
      "country": "IND",
      "type": "G60",
      "camera_type": "G",
      "speed_limit": "60",
      "direction": "65",
      "status": "A",
      "rotatable": true,
      "gps_status": "+"
    },
    {
      "id": 204754,
      "latitude": 9.043383,
      "longitude": 76.625404,
      "city": "Kerala",
      "state": "Tamil Nadu",
      "street": "unknown",
      "postal_code": "690569",
      "country": "IND",
      "type": "G60",
      "camera_type": "G",
      "speed_limit": "60",
      "direction": "80",
      "status": "A",
      "rotatable": true,
      "gps_status": "+"
    },
    {
      "id": 204753,
      "latitude": 9.059483,
      "longitude": 76.639244,
      "city": "Kerala",
      "state": "Tamil Nadu",
      "street": "Kollam - Teni Highway",
      "postal_code": "691504",
      "country": "IND",
      "type": "G50",
      "camera_type": "G",
      "speed_limit": "50",
      "direction": "85",
      "status": "A",
      "rotatable": true,
      "gps_status": "+"
    },
    {
      "id": 185121,
      "latitude": 9.041584,
      "longitude": 76.715096,
      "city": "Puthoor",
      "state": "Tamil Nadu",
      "street": "unknown",
      "postal_code": "691507",
      "country": "IND",
      "type": "G50",
      "camera_type": "G",
      "speed_limit": "50",
      "direction": "150",
      "status": "A",
      "rotatable": true,
      "gps_status": "+"
    },
    {
      "id": 185112,
      "latitude": 9.058038,
      "longitude": 76.7677,
      "city": "Kerala",
      "state": "Tamil Nadu",
      "street": "MC Road",
      "postal_code": "691521",
      "country": "IND",
      "type": "G50",
      "camera_type": "G",
      "speed_limit": "50",
      "direction": "140",
      "status": "A",
      "rotatable": true,
      "gps_status": "+"
    },
    {
      "id": 185111,
      "latitude": 9.0581,
      "longitude": 76.7677,
      "city": "Kerala",
      "state": "Tamil Nadu",
      "street": "MC Road",
      "postal_code": "691521",
      "country": "IND",
      "type": "G50",
      "camera_type": "G",
      "speed_limit": "50",
      "direction": "115",
      "status": "A",
      "rotatable": true,
      "gps_status": "+"
    },
    {
      "id": 204752,
      "latitude": 9.061928,
      "longitude": 76.674606,
      "city": "Kerala",
      "state": "Tamil Nadu",
      "street": "Kottarakara Sasthamkotta Road",
      "postal_code": "691507",
      "country": "IND",
      "type": "G40",
      "camera_type": "G",
      "speed_limit": "40",
      "direction": "170",
      "status": "A",
      "rotatable": true,
      "gps_status": "+"
    },
    {
      "id": 205000,
      "latitude": 9.087572,
      "longitude": 76.554268,
      "city": "Kerala",
      "state": "Tamil Nadu",
      "street": "Puthiyakavu-Chakuvally Road",
      "postal_code": "690539",
      "country": "IND",
      "type": "G60",
      "camera_type": "G",
      "speed_limit": "60",
      "direction": "310",
      "status": "A",
      "rotatable": true,
      "gps_status": "+"
    },
    {
      "id": 205002,
      "latitude": 9.089542,
      "longitude": 76.599075,
      "city": "Kerala",
      "state": "Tamil Nadu",
      "street": "Puthiyakavu-Chakuvally Road",
      "postal_code": "690522",
      "country": "IND",
      "type": "G60",
      "camera_type": "G",
      "speed_limit": "60",
      "direction": "265",
      "status": "A",
      "rotatable": true,
      "gps_status": "+"
    },
    {
      "id": 204998,
      "latitude": 9.08879,
      "longitude": 76.638443,
      "city": "Kerala",
      "state": "Tamil Nadu",
      "street": "Kollam - Teni Highway",
      "postal_code": "691504",
      "country": "IND",
      "type": "G60",
      "camera_type": "G",
      "speed_limit": "60",
      "direction": "155",
      "status": "A",
      "rotatable": true,
      "gps_status": "+"
    },
    {
      "id": 204996,
      "latitude": 9.08015,
      "longitude": 76.671547,
      "city": "Kerala",
      "state": "Tamil Nadu",
      "street": "Adoor - Kollam Road",
      "postal_code": "691553",
      "country": "IND",
      "type": "G80",
      "camera_type": "G",
      "speed_limit": "80",
      "direction": "265",
      "status": "A",
      "rotatable": true,
      "gps_status": "+"
    },
    {
      "id": 204995,
      "latitude": 9.091703,
      "longitude": 76.687782,
      "city": "Kerala",
      "state": "Tamil Nadu",
      "street": "Kadambanad Enaathu Ezhamkulam road",
      "postal_code": "691553",
      "country": "IND",
      "type": "G40",
      "camera_type": "G",
      "speed_limit": "40",
      "direction": "225",
      "status": "A",
      "rotatable": true,
      "gps_status": "+"
    },
    {
      "id": 185821,
      "latitude": 9.080249,
      "longitude": 76.752937,
      "city": "",
      "state": "Tamil Nadu",
      "street": "MC Road",
      "postal_code": "691521",
      "country": "IND",
      "type": "G50",
      "camera_type": "G",
      "speed_limit": "50",
      "direction": "95",
      "status": "A",
      "rotatable": true,
      "gps_status": "+"
    },
    {
      "id": 185040,
      "latitude": 9.087644,
      "longitude": 76.754578,
      "city": "Kerala",
      "state": "Tamil Nadu",
      "street": "MC Road",
      "postal_code": "691521",
      "country": "IND",
      "type": "G80",
      "camera_type": "G",
      "speed_limit": "80",
      "direction": "50",
      "status": "A",
      "rotatable": true,
      "gps_status": "-"
    },
    {
      "id": 185041,
      "latitude": 9.092817,
      "longitude": 76.753273,
      "city": "Kerala",
      "state": "Tamil Nadu",
      "street": "MC Road",
      "postal_code": "691526",
      "country": "IND",
      "type": "G80",
      "camera_type": "G",
      "speed_limit": "80",
      "direction": "5",
      "status": "A",
      "rotatable": true,
      "gps_status": "-"
    },
    {
      "id": 184879,
      "latitude": 9.088928,
      "longitude": 76.856049,
      "city": "Pathanapuram",
      "state": "Tamil Nadu",
      "street": "Pathanapuram - Kunnikode Road",
      "postal_code": "689695",
      "country": "IND",
      "type": "G70",
      "camera_type": "G",
      "speed_limit": "70",
      "direction": "260",
      "status": "A",
      "rotatable": true,
      "gps_status": "+"
    },
    {
      "id": 185043,
      "latitude": 9.115613,
      "longitude": 76.745094,
      "city": "Kerala",
      "state": "Tamil Nadu",
      "street": "MC Road",
      "postal_code": "691526",
      "country": "IND",
      "type": "G70",
      "camera_type": "G",
      "speed_limit": "70",
      "direction": "295",
      "status": "A",
      "rotatable": true,
      "gps_status": "+"
    },
    {
      "id": 204997,
      "latitude": 9.135756,
      "longitude": 76.62635,
      "city": "Kerala",
      "state": "Tamil Nadu",
      "street": "Kollam - Teni Highway",
      "postal_code": "690530",
      "country": "IND",
      "type": "G60",
      "camera_type": "G",
      "speed_limit": "60",
      "direction": "160",
      "status": "A",
      "rotatable": true,
      "gps_status": "+"
    },
    {
      "id": 185050,
      "latitude": 9.138388,
      "longitude": 76.729553,
      "city": "Kerala",
      "state": "Tamil Nadu",
      "street": "Adoor - Mundakayam Highway",
      "postal_code": "691553",
      "country": "IND",
      "type": "G50",
      "camera_type": "G",
      "speed_limit": "50",
      "direction": "120",
      "status": "A",
      "rotatable": true,
      "gps_status": "+"
    },
    {
      "id": 184888,
      "latitude": 9.120348,
      "longitude": 76.850929,
      "city": "Kerala",
      "state": "Tamil Nadu",
      "street": "Adoor - Kalanjur Road",
      "postal_code": "691524",
      "country": "IND",
      "type": "G40",
      "camera_type": "G",
      "speed_limit": "40",
      "direction": "55",
      "status": "A",
      "rotatable": true,
      "gps_status": "+"
    },
    {
      "id": 205004,
      "latitude": 9.140375,
      "longitude": 76.512169,
      "city": "Kerala",
      "state": "Tamil Nadu",
      "street": "Salem - Kochi - Kanyakumari Road",
      "postal_code": "690526",
      "country": "IND",
      "type": "G70",
      "camera_type": "G",
      "speed_limit": "70",
      "direction": "110",
      "status": "A",
      "rotatable": true,
      "gps_status": "+"
    },
    {
      "id": 205005,
      "latitude": 9.151294,
      "longitude": 76.514,
      "city": "Kayamkulam",
      "state": "Tamil Nadu",
      "street": "Randamkutty -Oachira road",
      "postal_code": "690533",
      "country": "IND",
      "type": "G60",
      "camera_type": "G",
      "speed_limit": "60",
      "direction": "130",
      "status": "A",
      "rotatable": true,
      "gps_status": "+"
    },
    {
      "id": 185066,
      "latitude": 9.150579,
      "longitude": 76.728874,
      "city": "Adoor",
      "state": "Tamil Nadu",
      "street": "MC Road",
      "postal_code": "691523",
      "country": "IND",
      "type": "G50",
      "camera_type": "G",
      "speed_limit": "50",
      "direction": "5",
      "status": "A",
      "rotatable": true,
      "gps_status": "+"
    },
    {
      "id": 185065,
      "latitude": 9.150652,
      "longitude": 76.728874,
      "city": "Adoor",
      "state": "Tamil Nadu",
      "street": "MC Road",
      "postal_code": "691523",
      "country": "IND",
      "type": "G50",
      "camera_type": "G",
      "speed_limit": "50",
      "direction": "280",
      "status": "A",
      "rotatable": true,
      "gps_status": "+"
    },
    {
      "id": 185045,
      "latitude": 9.152599,
      "longitude": 76.735847,
      "city": "Adoor",
      "state": "Tamil Nadu",
      "street": "Central Toll",
      "postal_code": "00000",
      "country": "IND",
      "type": "G50",
      "camera_type": "G",
      "speed_limit": "50",
      "direction": "80",
      "status": "A",
      "rotatable": true,
      "gps_status": "+"
    },
    {
      "id": 204985,
      "latitude": 9.176907,
      "longitude": 76.525597,
      "city": "Kayamkulam",
      "state": "Tamil Nadu",
      "street": "Kayamkulam - Punalur Road",
      "postal_code": "690537",
      "country": "IND",
      "type": "G80",
      "camera_type": "G",
      "speed_limit": "80",
      "direction": "45",
      "status": "A",
      "rotatable": true,
      "gps_status": "+"
    },
    {
      "id": 204988,
      "latitude": 9.176544,
      "longitude": 76.562546,
      "city": "Kerala",
      "state": "Tamil Nadu",
      "street": "Kayamkulam - Punalur Road",
      "postal_code": "690503",
      "country": "IND",
      "type": "G80",
      "camera_type": "G",
      "speed_limit": "80",
      "direction": "130",
      "status": "A",
      "rotatable": true,
      "gps_status": "+"
    },
    {
      "id": 205032,
      "latitude": 9.175148,
      "longitude": 76.617928,
      "city": "Kerala",
      "state": "Tamil Nadu",
      "street": "Kayamkulam - Pathanapuram Road",
      "postal_code": "690571",
      "country": "IND",
      "type": "G60",
      "camera_type": "G",
      "speed_limit": "60",
      "direction": "190",
      "status": "A",
      "rotatable": true,
      "gps_status": "+"
    },
    {
      "id": 185120,
      "latitude": 9.161173,
      "longitude": 76.720062,
      "city": "Adoor",
      "state": "Tamil Nadu",
      "street": "unknown",
      "postal_code": "691523",
      "country": "IND",
      "type": "G50",
      "camera_type": "G",
      "speed_limit": "50",
      "direction": "240",
      "status": "A",
      "rotatable": true,
      "gps_status": "+"
    },
    {
      "id": 185044,
      "latitude": 9.17645,
      "longitude": 76.741707,
      "city": "Kerala",
      "state": "Tamil Nadu",
      "street": "Adoor-Kaippattoor Road",
      "postal_code": "691525",
      "country": "IND",
      "type": "G50",
      "camera_type": "G",
      "speed_limit": "50",
      "direction": "260",
      "status": "A",
      "rotatable": true,
      "gps_status": "+"
    },
    {
      "id": 185052,
      "latitude": 9.193868,
      "longitude": 76.702164,
      "city": "Kerala",
      "state": "Tamil Nadu",
      "street": "MC Road",
      "postal_code": "689518",
      "country": "IND",
      "type": "G80",
      "camera_type": "G",
      "speed_limit": "80",
      "direction": "255",
      "status": "A",
      "rotatable": true,
      "gps_status": "+"
    },
    {
      "id": 185053,
      "latitude": 9.193881,
      "longitude": 76.701965,
      "city": "Kerala",
      "state": "Tamil Nadu",
      "street": "MC Road",
      "postal_code": "689518",
      "country": "IND",
      "type": "G80",
      "camera_type": "G",
      "speed_limit": "80",
      "direction": "275",
      "status": "A",
      "rotatable": true,
      "gps_status": "+"
    },
    {
      "id": 204987,
      "latitude": 9.235069,
      "longitude": 76.589607,
      "city": "Kerala",
      "state": "Tamil Nadu",
      "street": "Kollam - Teni Highway",
      "postal_code": "690534",
      "country": "IND",
      "type": "G80",
      "camera_type": "G",
      "speed_limit": "80",
      "direction": "160",
      "status": "A",
      "rotatable": true,
      "gps_status": "+"
    },
    {
      "id": 205031,
      "latitude": 9.223876,
      "longitude": 76.684471,
      "city": "Pandalam",
      "state": "Tamil Nadu",
      "street": "Pandalam - Pathanamthitta",
      "postal_code": "689505",
      "country": "IND",
      "type": "G60",
      "camera_type": "G",
      "speed_limit": "60",
      "direction": "40",
      "status": "A",
      "rotatable": true,
      "gps_status": "+"
    },
    {
      "id": 194435,
      "latitude": 9.221946,
      "longitude": 76.850853,
      "city": "Konni",
      "state": "Tamil Nadu",
      "street": "Punalur-Muvattupuzha road",
      "postal_code": "699691",
      "country": "IND",
      "type": "G40",
      "camera_type": "G",
      "speed_limit": "40",
      "direction": "295",
      "status": "A",
      "rotatable": true,
      "gps_status": "+"
    },
    {
      "id": 204986,
      "latitude": 9.247325,
      "longitude": 76.520576,
      "city": "Kerala",
      "state": "Tamil Nadu",
      "street": "Kayamkulam - Thiruvalla Road",
      "postal_code": "690103",
      "country": "IND",
      "type": "G60",
      "camera_type": "G",
      "speed_limit": "60",
      "direction": "135",
      "status": "A",
      "rotatable": true,
      "gps_status": "+"
    },
    {
      "id": 204953,
      "latitude": 9.2532,
      "longitude": 76.540199,
      "city": "Mavelikkara",
      "state": "Tamil Nadu",
      "street": "unknown",
      "postal_code": "690101",
      "country": "IND",
      "type": "G60",
      "camera_type": "G",
      "speed_limit": "60",
      "direction": "335",
      "status": "A",
      "rotatable": true,
      "gps_status": "+"
    },
    {
      "id": 204950,
      "latitude": 9.253384,
      "longitude": 76.586327,
      "city": "Kerala",
      "state": "Tamil Nadu",
      "street": "Mavelikkara-Kozhencherry Highway",
      "postal_code": "690509",
      "country": "IND",
      "type": "G60",
      "camera_type": "G",
      "speed_limit": "60",
      "direction": "275",
      "status": "A",
      "rotatable": true,
      "gps_status": "+"
    },
    {
      "id": 205030,
      "latitude": 9.242455,
      "longitude": 76.672325,
      "city": "Kozhencherry",
      "state": "Tamil Nadu",
      "street": "Aranmula - Kulanada Road",
      "postal_code": "689507",
      "country": "IND",
      "type": "G80",
      "camera_type": "G",
      "speed_limit": "80",
      "direction": "240",
      "status": "A",
      "rotatable": true,
      "gps_status": "+"
    },
    {
      "id": 205023,
      "latitude": 9.254324,
      "longitude": 76.662155,
      "city": "Kozhencherry",
      "state": "Tamil Nadu",
      "street": "MC Road",
      "postal_code": "689504",
      "country": "IND",
      "type": "G80",
      "camera_type": "G",
      "speed_limit": "80",
      "direction": "250",
      "status": "A",
      "rotatable": true,
      "gps_status": "+"
    },
    {
      "id": 205024,
      "latitude": 9.25439,
      "longitude": 76.662201,
      "city": "Kozhencherry",
      "state": "Tamil Nadu",
      "street": "MC Road",
      "postal_code": "689504",
      "country": "IND",
      "type": "G80",
      "camera_type": "G",
      "speed_limit": "80",
      "direction": "25",
      "status": "A",
      "rotatable": true,
      "gps_status": "+"
    },
    {
      "id": 185115,
      "latitude": 9.254425,
      "longitude": 76.762047,
      "city": "Omalloor",
      "state": "Tamil Nadu",
      "street": "unknown",
      "postal_code": "683647",
      "country": "IND",
      "type": "G50",
      "camera_type": "G",
      "speed_limit": "50",
      "direction": "90",
      "status": "A",
      "rotatable": true,
      "gps_status": "+"
    },
    {
      "id": 184938,
      "latitude": 9.259771,
      "longitude": 76.783791,
      "city": "Pathanamthitta",
      "state": "Tamil Nadu",
      "street": "Pathanamthitta Ring Road",
      "postal_code": "689671",
      "country": "IND",
      "type": "G40",
      "camera_type": "G",
      "speed_limit": "40",
      "direction": "345",
      "status": "A",
      "rotatable": true,
      "gps_status": "+"
    },
    {
      "id": 194440,
      "latitude": 9.265578,
      "longitude": 76.790108,
      "city": "Pathanamthitta",
      "state": "Tamil Nadu",
      "street": "Pathanamthitta Ring Road",
      "postal_code": "689671",
      "country": "IND",
      "type": "G50",
      "camera_type": "G",
      "speed_limit": "50",
      "direction": "165",
      "status": "A",
      "rotatable": true,
      "gps_status": "+"
    },
    {
      "id": 205027,
      "latitude": 9.286318,
      "longitude": 76.652237,
      "city": "Kozhencherry",
      "state": "Tamil Nadu",
      "street": "MC Road",
      "postal_code": "689504",
      "country": "IND",
      "type": "G90",
      "camera_type": "G",
      "speed_limit": "90",
      "direction": "195",
      "status": "A",
      "rotatable": true,
      "gps_status": "+"
    },
    {
      "id": 205026,
      "latitude": 9.286427,
      "longitude": 76.652245,
      "city": "Kozhencherry",
      "state": "Tamil Nadu",
      "street": "MC Road",
      "postal_code": "689504",
      "country": "IND",
      "type": "G90",
      "camera_type": "G",
      "speed_limit": "90",
      "direction": "205",
      "status": "A",
      "rotatable": true,
      "gps_status": "+"
    },
    {
      "id": 205907,
      "latitude": 9.31784,
      "longitude": 76.615593,
      "city": "Chengannur",
      "state": "Tamil Nadu",
      "street": "MC Road",
      "postal_code": "689122",
      "country": "IND",
      "type": "A",
      "camera_type": "A",
      "speed_limit": "/",
      "direction": "315",
      "status": "A",
      "rotatable": true,
      "gps_status": "+"
    },
    {
      "id": 205028,
      "latitude": 9.301342,
      "longitude": 76.631126,
      "city": "Kerala",
      "state": "Tamil Nadu",
      "street": "MC Road",
      "postal_code": "689122",
      "country": "IND",
      "type": "G80",
      "camera_type": "G",
      "speed_limit": "80",
      "direction": "355",
      "status": "A",
      "rotatable": true,
      "gps_status": "+"
    },
    {
      "id": 205022,
      "latitude": 9.30938,
      "longitude": 76.622528,
      "city": "Chengannur",
      "state": "Tamil Nadu",
      "street": "MC Road",
      "postal_code": "689122",
      "country": "IND",
      "type": "G50",
      "camera_type": "G",
      "speed_limit": "50",
      "direction": "275",
      "status": "A",
      "rotatable": true,
      "gps_status": "+"
    },
    {
      "id": 205021,
      "latitude": 9.309381,
      "longitude": 76.622574,
      "city": "Chengannur",
      "state": "Tamil Nadu",
      "street": "MC Road",
      "postal_code": "689122",
      "country": "IND",
      "type": "G50",
      "camera_type": "G",
      "speed_limit": "50",
      "direction": "180",
      "status": "A",
      "rotatable": true,
      "gps_status": "+"
    },
    {
      "id": 185049,
      "latitude": 9.300346,
      "longitude": 76.729767,
      "city": "Kozhencherry",
      "state": "Tamil Nadu",
      "street": "Thiruvalla - Pathanamthitta Road",
      "postal_code": "689654",
      "country": "IND",
      "type": "G50",
      "camera_type": "G",
      "speed_limit": "50",
      "direction": "310",
      "status": "A",
      "rotatable": true,
      "gps_status": "+"
    },
    {
      "id": 204952,
      "latitude": 9.3257,
      "longitude": 76.532303,
      "city": "Mavelikkara",
      "state": "Tamil Nadu",
      "street": "state highway 6",
      "postal_code": "698623",
      "country": "IND",
      "type": "G60",
      "camera_type": "G",
      "speed_limit": "60",
      "direction": "165",
      "status": "A",
      "rotatable": true,
      "gps_status": "+"
    },
    {
      "id": 204949,
      "latitude": 9.325987,
      "longitude": 76.535248,
      "city": "Kerala",
      "state": "Tamil Nadu",
      "street": "unknown",
      "postal_code": "689626",
      "country": "IND",
      "type": "G60",
      "camera_type": "G",
      "speed_limit": "60",
      "direction": "230",
      "status": "A",
      "rotatable": true,
      "gps_status": "+"
    },
    {
      "id": 205025,
      "latitude": 9.336099,
      "longitude": 76.603569,
      "city": "Kerala",
      "state": "Tamil Nadu",
      "street": "MC Road",
      "postal_code": "689124",
      "country": "IND",
      "type": "G60",
      "camera_type": "G",
      "speed_limit": "60",
      "direction": "220",
      "status": "A",
      "rotatable": true,
      "gps_status": "+"
    },
    {
      "id": 204971,
      "latitude": 9.329982,
      "longitude": 76.70903,
      "city": "Kozhencherry",
      "state": "Tamil Nadu",
      "street": "Thiruvalla - Pathanamthitta Road",
      "postal_code": "689654",
      "country": "IND",
      "type": "G60",
      "camera_type": "G",
      "speed_limit": "60",
      "direction": "335",
      "status": "A",
      "rotatable": true,
      "gps_status": "+"
    },
    {
      "id": 204972,
      "latitude": 9.3308,
      "longitude": 76.709061,
      "city": "Kozhencherry",
      "state": "Tamil Nadu",
      "street": "Thiruvalla - Pathanamthitta Road",
      "postal_code": "689654",
      "country": "IND",
      "type": "G60",
      "camera_type": "G",
      "speed_limit": "60",
      "direction": "290",
      "status": "A",
      "rotatable": true,
      "gps_status": "+"
    },
    {
      "id": 194452,
      "latitude": 9.33713,
      "longitude": 76.708115,
      "city": "Kozhenchery",
      "state": "Tamil Nadu",
      "street": "Thiruvalla - Pathanamthitta road",
      "postal_code": "689641",
      "country": "IND",
      "type": "G50",
      "camera_type": "G",
      "speed_limit": "50",
      "direction": "150",
      "status": "A",
      "rotatable": true,
      "gps_status": "+"
    },
    {
      "id": 185002,
      "latitude": 9.329867,
      "longitude": 76.92601,
      "city": "Chittar",
      "state": "Tamil Nadu",
      "street": "unknown",
      "postal_code": "689663",
      "country": "IND",
      "type": "G40",
      "camera_type": "G",
      "speed_limit": "40",
      "direction": "350",
      "status": "A",
      "rotatable": true,
      "gps_status": "+"
    },
    {
      "id": 204838,
      "latitude": 9.358642,
      "longitude": 76.541634,
      "city": "Kerala",
      "state": "Tamil Nadu",
      "street": "Kayamkulam - Thiruvalla Road",
      "postal_code": "689104",
      "country": "IND",
      "type": "G60",
      "camera_type": "G",
      "speed_limit": "60",
      "direction": "305",
      "status": "A",
      "rotatable": true,
      "gps_status": "+"
    },
    {
      "id": 204908,
      "latitude": 9.357756,
      "longitude": 76.589157,
      "city": "Kerala",
      "state": "Tamil Nadu",
      "street": "MC Road",
      "postal_code": "689106",
      "country": "IND",
      "type": "G60",
      "camera_type": "G",
      "speed_limit": "60",
      "direction": "140",
      "status": "A",
      "rotatable": true,
      "gps_status": "+"
    },
    {
      "id": 204841,
      "latitude": 9.367885,
      "longitude": 76.535416,
      "city": "Kerala",
      "state": "Tamil Nadu",
      "street": "Ambalapuzha-Thiruvalla Highway",
      "postal_code": "689110",
      "country": "IND",
      "type": "G80",
      "camera_type": "G",
      "speed_limit": "80",
      "direction": "340",
      "status": "A",
      "rotatable": true,
      "gps_status": "+"
    },
    {
      "id": 185105,
      "latitude": 9.362052,
      "longitude": 76.777176,
      "city": "Ranni",
      "state": "Tamil Nadu",
      "street": "unknown",
      "postal_code": "689674",
      "country": "IND",
      "type": "G50",
      "camera_type": "G",
      "speed_limit": "50",
      "direction": "185",
      "status": "A",
      "rotatable": true,
      "gps_status": "-"
    },
    {
      "id": 185104,
      "latitude": 9.3794,
      "longitude": 76.779602,
      "city": "Ranni",
      "state": "Tamil Nadu",
      "street": "Punalur - Muvattupuzha Main Eastern Highway",
      "postal_code": "689674",
      "country": "IND",
      "type": "G80",
      "camera_type": "G",
      "speed_limit": "80",
      "direction": "145",
      "status": "A",
      "rotatable": true,
      "gps_status": "+"
    },
    {
      "id": 184890,
      "latitude": 9.367515,
      "longitude": 76.849297,
      "city": "Ranni",
      "state": "Tamil Nadu",
      "street": "Perunad_Perumthenaruvi road",
      "postal_code": "689711",
      "country": "IND",
      "type": "G30",
      "camera_type": "G",
      "speed_limit": "30",
      "direction": "155",
      "status": "A",
      "rotatable": true,
      "gps_status": "+"
    },
    {
      "id": 204844,
      "latitude": 9.381056,
      "longitude": 76.574501,
      "city": "Thiruvalla",
      "state": "Tamil Nadu",
      "street": "MC Road",
      "postal_code": "689101",
      "country": "IND",
      "type": "G80",
      "camera_type": "G",
      "speed_limit": "80",
      "direction": "190",
      "status": "A",
      "rotatable": true,
      "gps_status": "+"
    },
    {
      "id": 204833,
      "latitude": 9.385374,
      "longitude": 76.574997,
      "city": "Thiruvalla",
      "state": "Tamil Nadu",
      "street": "unknown",
      "postal_code": "689111",
      "country": "IND",
      "type": "A",
      "camera_type": "A",
      "speed_limit": "/",
      "direction": "190",
      "status": "A",
      "rotatable": true,
      "gps_status": "+"
    },
    {
      "id": 204832,
      "latitude": 9.385394,
      "longitude": 76.57502,
      "city": "Thiruvalla",
      "state": "Tamil Nadu",
      "street": "unknown",
      "postal_code": "689111",
      "country": "IND",
      "type": "A",
      "camera_type": "A",
      "speed_limit": "/",
      "direction": "220",
      "status": "A",
      "rotatable": true,
      "gps_status": "+"
    },
    {
      "id": 204831,
      "latitude": 9.385417,
      "longitude": 76.575089,
      "city": "Thiruvalla",
      "state": "Tamil Nadu",
      "street": "unknown",
      "postal_code": "689111",
      "country": "IND",
      "type": "A",
      "camera_type": "A",
      "speed_limit": "/",
      "direction": "325",
      "status": "A",
      "rotatable": true,
      "gps_status": "+"
    },
    {
      "id": 204837,
      "latitude": 9.388307,
      "longitude": 76.578201,
      "city": "Thiruvalla",
      "state": "Tamil Nadu",
      "street": "Thiruvalla Bypass",
      "postal_code": "689111",
      "country": "IND",
      "type": "G60",
      "camera_type": "G",
      "speed_limit": "60",
      "direction": "200",
      "status": "A",
      "rotatable": true,
      "gps_status": "+"
    },
    {
      "id": 204836,
      "latitude": 9.3919,
      "longitude": 76.577873,
      "city": "Thiruvalla",
      "state": "Tamil Nadu",
      "street": "Thiruvalla - Mallappally Road",
      "postal_code": "689111",
      "country": "IND",
      "type": "G60",
      "camera_type": "G",
      "speed_limit": "60",
      "direction": "145",
      "status": "A",
      "rotatable": true,
      "gps_status": "+"
    },
    {
      "id": 204905,
      "latitude": 9.38487,
      "longitude": 76.615295,
      "city": "Kerala",
      "state": "Tamil Nadu",
      "street": "Thiruvalla - Pathanamthitta road",
      "postal_code": "689105",
      "country": "IND",
      "type": "G60",
      "camera_type": "G",
      "speed_limit": "60",
      "direction": "345",
      "status": "A",
      "rotatable": true,
      "gps_status": "+"
    },
    {
      "id": 204906,
      "latitude": 9.386017,
      "longitude": 76.610573,
      "city": "Kerala",
      "state": "Tamil Nadu",
      "street": "Thiruvalla - Pathanamthitta road",
      "postal_code": "689105",
      "country": "IND",
      "type": "G60",
      "camera_type": "G",
      "speed_limit": "60",
      "direction": "335",
      "status": "A",
      "rotatable": true,
      "gps_status": "+"
    },
    {
      "id": 204907,
      "latitude": 9.382897,
      "longitude": 76.638916,
      "city": "Kerala",
      "state": "Tamil Nadu",
      "street": "Thiruvalla - Pathanamthitta road",
      "postal_code": "689547",
      "country": "IND",
      "type": "G60",
      "camera_type": "G",
      "speed_limit": "60",
      "direction": "310",
      "status": "A",
      "rotatable": true,
      "gps_status": "+"
    },
    {
      "id": 179507,
      "latitude": 9.383169,
      "longitude": 76.707199,
      "city": "Kerala",
      "state": "Tamil Nadu",
      "street": "Tiruvalla-Vennikulam-Ranni Road",
      "postal_code": "689674",
      "country": "IND",
      "type": "G70",
      "camera_type": "G",
      "speed_limit": "70",
      "direction": "285",
      "status": "A",
      "rotatable": true,
      "gps_status": "-"
    },
    {
      "id": 194442,
      "latitude": 9.382441,
      "longitude": 76.779091,
      "city": "Ranni",
      "state": "Tamil Nadu",
      "street": "Tiruvalla-Vennikulam-Ranni Road",
      "postal_code": "689674",
      "country": "IND",
      "type": "G30",
      "camera_type": "G",
      "speed_limit": "30",
      "direction": "175",
      "status": "A",
      "rotatable": true,
      "gps_status": "+"
    },
    {
      "id": 185094,
      "latitude": 9.38482,
      "longitude": 76.783775,
      "city": "Ranni",
      "state": "Tamil Nadu",
      "street": "Main Eastern Highway",
      "postal_code": "689674",
      "country": "IND",
      "type": "G40",
      "camera_type": "G",
      "speed_limit": "40",
      "direction": "100",
      "status": "A",
      "rotatable": true,
      "gps_status": "+"
    },
    {
      "id": 204840,
      "latitude": 9.406509,
      "longitude": 76.559708,
      "city": "Thiruvalla",
      "state": "Tamil Nadu",
      "street": "MC Road",
      "postal_code": "689107",
      "country": "IND",
      "type": "G80",
      "camera_type": "G",
      "speed_limit": "80",
      "direction": "260",
      "status": "A",
      "rotatable": true,
      "gps_status": "+"
    },
    {
      "id": 204842,
      "latitude": 9.408131,
      "longitude": 76.550056,
      "city": "Kerala",
      "state": "Tamil Nadu",
      "street": "Kavumbhagam Idinjillam Road",
      "postal_code": "689113",
      "country": "IND",
      "type": "G60",
      "camera_type": "G",
      "speed_limit": "60",
      "direction": "210",
      "status": "A",
      "rotatable": true,
      "gps_status": "+"
    },
    {
      "id": 194446,
      "latitude": 9.41651,
      "longitude": 76.728714,
      "city": "Chalappally",
      "state": "Tamil Nadu",
      "street": "Ranni - Mallapally Road",
      "postal_code": "689592",
      "country": "IND",
      "type": "G50",
      "camera_type": "G",
      "speed_limit": "50",
      "direction": "330",
      "status": "A",
      "rotatable": true,
      "gps_status": "+"
    },
    {
      "id": 204691,
      "latitude": 9.429785,
      "longitude": 76.54454,
      "city": "Changanassery",
      "state": "Tamil Nadu",
      "street": "Changanasserry Bypass Road",
      "postal_code": "686101",
      "country": "IND",
      "type": "A",
      "camera_type": "A",
      "speed_limit": "/",
      "direction": "105",
      "status": "A",
      "rotatable": true,
      "gps_status": "+"
    },
    {
      "id": 204690,
      "latitude": 9.429808,
      "longitude": 76.544632,
      "city": "Changanassery",
      "state": "Tamil Nadu",
      "street": "Changanasserry Bypass Road",
      "postal_code": "686101",
      "country": "IND",
      "type": "A",
      "camera_type": "A",
      "speed_limit": "/",
      "direction": "160",
      "status": "A",
      "rotatable": true,
      "gps_status": "+"
    },
    {
      "id": 185061,
      "latitude": 9.421615,
      "longitude": 76.797546,
      "city": "Ranni",
      "state": "Tamil Nadu",
      "street": "Main Eastern Highway",
      "postal_code": "689677",
      "country": "IND",
      "type": "G50",
      "camera_type": "G",
      "speed_limit": "50",
      "direction": "175",
      "status": "A",
      "rotatable": true,
      "gps_status": "+"
    },
    {
      "id": 205049,
      "latitude": 9.431627,
      "longitude": 76.851814,
      "city": "Ranni",
      "state": "Tamil Nadu",
      "street": "Mattanoorkara - Vechoochira Road",
      "postal_code": "686510",
      "country": "IND",
      "type": "G60",
      "camera_type": "G",
      "speed_limit": "60",
      "direction": "230",
      "status": "A",
      "rotatable": true,
      "gps_status": "+"
    },
    {
      "id": 204683,
      "latitude": 9.456708,
      "longitude": 76.552269,
      "city": "Kerala",
      "state": "Tamil Nadu",
      "street": "Changanassery- Vazhoor Road",
      "postal_code": "686536",
      "country": "IND",
      "type": "G70",
      "camera_type": "G",
      "speed_limit": "70",
      "direction": "195",
      "status": "A",
      "rotatable": true,
      "gps_status": "+"
    },
    {
      "id": 204761,
      "latitude": 9.443933,
      "longitude": 76.65126,
      "city": "Mallappally",
      "state": "Tamil Nadu",
      "street": "Thiruvalla- Mallapally Road",
      "postal_code": "689594",
      "country": "IND",
      "type": "G50",
      "camera_type": "G",
      "speed_limit": "50",
      "direction": "245",
      "status": "A",
      "rotatable": true,
      "gps_status": "+"
    },
    {
      "id": 204954,
      "latitude": 9.451532,
      "longitude": 76.745529,
      "city": "Kerala",
      "state": "Tamil Nadu",
      "street": "unknown",
      "postal_code": "686547",
      "country": "IND",
      "type": "G60",
      "camera_type": "G",
      "speed_limit": "60",
      "direction": "220",
      "status": "A",
      "rotatable": true,
      "gps_status": "+"
    },
    {
      "id": 204682,
      "latitude": 9.46296,
      "longitude": 76.533737,
      "city": "Changanassery",
      "state": "Tamil Nadu",
      "street": "Changanacherry Bypass Road",
      "postal_code": "686101",
      "country": "IND",
      "type": "G80",
      "camera_type": "G",
      "speed_limit": "80",
      "direction": "145",
      "status": "A",
      "rotatable": true,
      "gps_status": "+"
    },
    {
      "id": 204680,
      "latitude": 9.470971,
      "longitude": 76.529099,
      "city": "Kerala",
      "state": "Tamil Nadu",
      "street": "MC Road",
      "postal_code": "686535",
      "country": "IND",
      "type": "G80",
      "camera_type": "G",
      "speed_limit": "80",
      "direction": "55",
      "status": "A",
      "rotatable": true,
      "gps_status": "+"
    },
    {
      "id": 204681,
      "latitude": 9.475305,
      "longitude": 76.528343,
      "city": "Kerala",
      "state": "Tamil Nadu",
      "street": "MC Road",
      "postal_code": "686535",
      "country": "IND",
      "type": "G80",
      "camera_type": "G",
      "speed_limit": "80",
      "direction": "60",
      "status": "A",
      "rotatable": true,
      "gps_status": "+"
    },
    {
      "id": 204763,
      "latitude": 9.462807,
      "longitude": 76.638,
      "city": "Kerala",
      "state": "Tamil Nadu",
      "street": "Kottayam-Kozhencherry Highway",
      "postal_code": "686540",
      "country": "IND",
      "type": "G50",
      "camera_type": "G",
      "speed_limit": "50",
      "direction": "315",
      "status": "A",
      "rotatable": true,
      "gps_status": "+"
    },
    {
      "id": 204762,
      "latitude": 9.500901,
      "longitude": 76.635757,
      "city": "Karukachal",
      "state": "Tamil Nadu",
      "street": "Changanassery - Vazhoor Road",
      "postal_code": "686540",
      "country": "IND",
      "type": "G70",
      "camera_type": "G",
      "speed_limit": "70",
      "direction": "100",
      "status": "A",
      "rotatable": true,
      "gps_status": "+"
    },
    {
      "id": 204764,
      "latitude": 9.504688,
      "longitude": 76.640701,
      "city": "Karukachal",
      "state": "Tamil Nadu",
      "street": "Kottayam-Puthuppally Road",
      "postal_code": "686540",
      "country": "IND",
      "type": "G50",
      "camera_type": "G",
      "speed_limit": "50",
      "direction": "20",
      "status": "A",
      "rotatable": true,
      "gps_status": "+"
    },
    {
      "id": 204874,
      "latitude": 9.538285,
      "longitude": 76.897606,
      "city": "Mundakkayam",
      "state": "Tamil Nadu",
      "street": "Kollam-Theni Highway",
      "postal_code": "686513",
      "country": "IND",
      "type": "G60",
      "camera_type": "G",
      "speed_limit": "60",
      "direction": "330",
      "status": "A",
      "rotatable": true,
      "gps_status": "+"
    },
    {
      "id": 204751,
      "latitude": 9.541869,
      "longitude": 76.513992,
      "city": "Kottayam",
      "state": "Tamil Nadu",
      "street": "MC Road",
      "postal_code": "686013",
      "country": "IND",
      "type": "G80",
      "camera_type": "G",
      "speed_limit": "80",
      "direction": "110",
      "status": "A",
      "rotatable": true,
      "gps_status": "+"
    },
    {
      "id": 204685,
      "latitude": 9.565923,
      "longitude": 76.518829,
      "city": "Kottayam",
      "state": "Tamil Nadu",
      "street": "MC Road",
      "postal_code": "686013",
      "country": "IND",
      "type": "G40",
      "camera_type": "G",
      "speed_limit": "40",
      "direction": "280",
      "status": "A",
      "rotatable": true,
      "gps_status": "+"
    },
    {
      "id": 204765,
      "latitude": 9.570868,
      "longitude": 76.519806,
      "city": "Kottayam",
      "state": "Tamil Nadu",
      "street": "MC Road",
      "postal_code": "686001",
      "country": "IND",
      "type": "G70",
      "camera_type": "G",
      "speed_limit": "70",
      "direction": "10",
      "status": "A",
      "rotatable": true,
      "gps_status": "+"
    },
    {
      "id": 204766,
      "latitude": 9.573152,
      "longitude": 76.519562,
      "city": "Kottayam",
      "state": "Tamil Nadu",
      "street": "MC Road",
      "postal_code": "686001",
      "country": "IND",
      "type": "G70",
      "camera_type": "G",
      "speed_limit": "70",
      "direction": "130",
      "status": "A",
      "rotatable": true,
      "gps_status": "+"
    },
    {
      "id": 204976,
      "latitude": 9.568718,
      "longitude": 76.753151,
      "city": "Kerala",
      "state": "Tamil Nadu",
      "street": "Pala-Ponkunam Road",
      "postal_code": "686522",
      "country": "IND",
      "type": "G80",
      "camera_type": "G",
      "speed_limit": "80",
      "direction": "225",
      "status": "A",
      "rotatable": true,
      "gps_status": "+"
    },
    {
      "id": 204894,
      "latitude": 9.5621,
      "longitude": 76.772202,
      "city": "Ponkunnam",
      "state": "Tamil Nadu",
      "street": "NH183",
      "postal_code": "686507",
      "country": "IND",
      "type": "G70",
      "camera_type": "G",
      "speed_limit": "70",
      "direction": "30",
      "status": "A",
      "rotatable": true,
      "gps_status": "+"
    },
    {
      "id": 204895,
      "latitude": 9.564155,
      "longitude": 76.762421,
      "city": "Ponkunnam",
      "state": "Tamil Nadu",
      "street": "NH183",
      "postal_code": "686507",
      "country": "IND",
      "type": "G70",
      "camera_type": "G",
      "speed_limit": "70",
      "direction": "280",
      "status": "A",
      "rotatable": true,
      "gps_status": "+"
    },
    {
      "id": 205041,
      "latitude": 9.5788,
      "longitude": 76.971207,
      "city": "Idukki",
      "state": "Tamil Nadu",
      "street": "Kollam - Theni Highway",
      "postal_code": "685531",
      "country": "IND",
      "type": "G80",
      "camera_type": "G",
      "speed_limit": "80",
      "direction": "235",
      "status": "A",
      "rotatable": true,
      "gps_status": "+"
    },
    {
      "id": 204937,
      "latitude": 9.5711,
      "longitude": 77.088699,
      "city": "Idukki",
      "state": "Tamil Nadu",
      "street": "Kollam-Theni Highway",
      "postal_code": "685533",
      "country": "IND",
      "type": "G60",
      "camera_type": "G",
      "speed_limit": "60",
      "direction": "155",
      "status": "A",
      "rotatable": true,
      "gps_status": "+"
    },
    {
      "id": 204684,
      "latitude": 9.595108,
      "longitude": 76.517693,
      "city": "Kottayam",
      "state": "Tamil Nadu",
      "street": "Kottayam - Kumarakom Road",
      "postal_code": "686001",
      "country": "IND",
      "type": "G50",
      "camera_type": "G",
      "speed_limit": "50",
      "direction": "90",
      "status": "A",
      "rotatable": true,
      "gps_status": "+"
    },
    {
      "id": 204787,
      "latitude": 9.588246,
      "longitude": 76.539284,
      "city": "Kottayam",
      "state": "Tamil Nadu",
      "street": "KK Road",
      "postal_code": "686002",
      "country": "IND",
      "type": "G40",
      "camera_type": "G",
      "speed_limit": "40",
      "direction": "265",
      "status": "A",
      "rotatable": true,
      "gps_status": "+"
    },
    {
      "id": 204788,
      "latitude": 9.588703,
      "longitude": 76.53672,
      "city": "Kottayam",
      "state": "Tamil Nadu",
      "street": "KK Road",
      "postal_code": "686002",
      "country": "IND",
      "type": "G60",
      "camera_type": "G",
      "speed_limit": "60",
      "direction": "70",
      "status": "A",
      "rotatable": true,
      "gps_status": "+"
    },
    {
      "id": 204790,
      "latitude": 9.591612,
      "longitude": 76.53199,
      "city": "Kottayam",
      "state": "Tamil Nadu",
      "street": "NH183",
      "postal_code": "686002",
      "country": "IND",
      "type": "A",
      "camera_type": "A",
      "speed_limit": "/",
      "direction": "165",
      "status": "A",
      "rotatable": true,
      "gps_status": "+"
    },
    {
      "id": 204789,
      "latitude": 9.594234,
      "longitude": 76.521126,
      "city": "Kottayam",
      "state": "Tamil Nadu",
      "street": "Kottayam - Kumarakom Road",
      "postal_code": "686001",
      "country": "IND",
      "type": "G60",
      "camera_type": "G",
      "speed_limit": "60",
      "direction": "225",
      "status": "A",
      "rotatable": true,
      "gps_status": "+"
    },
    {
      "id": 204786,
      "latitude": 9.597612,
      "longitude": 76.527817,
      "city": "Kottayam",
      "state": "Tamil Nadu",
      "street": "MC Road",
      "postal_code": "686001",
      "country": "IND",
      "type": "G60",
      "camera_type": "G",
      "speed_limit": "60",
      "direction": "225",
      "status": "A",
      "rotatable": true,
      "gps_status": "+"
    },
    {
      "id": 204785,
      "latitude": 9.598647,
      "longitude": 76.528603,
      "city": "Kottayam",
      "state": "Tamil Nadu",
      "street": "MC Road",
      "postal_code": "686001",
      "country": "IND",
      "type": "G60",
      "camera_type": "G",
      "speed_limit": "60",
      "direction": "100",
      "status": "A",
      "rotatable": true,
      "gps_status": "+"
    },
    {
      "id": 205038,
      "latitude": 9.617555,
      "longitude": 77.15844,
      "city": "Idukki",
      "state": "Tamil Nadu",
      "street": "Munnar - Kumily Road",
      "postal_code": "685509",
      "country": "IND",
      "type": "G60",
      "camera_type": "G",
      "speed_limit": "60",
      "direction": "230",
      "status": "A",
      "rotatable": true,
      "gps_status": "+"
    },
    {
      "id": 205048,
      "latitude": 9.606659,
      "longitude": 77.163506,
      "city": "Idukki",
      "state": "Tamil Nadu",
      "street": "Kollam-Theni Highway",
      "postal_code": "685509",
      "country": "IND",
      "type": "G60",
      "camera_type": "G",
      "speed_limit": "60",
      "direction": "235",
      "status": "A",
      "rotatable": true,
      "gps_status": "+"
    },
    {
      "id": 185069,
      "latitude": 9.653164,
      "longitude": 76.724144,
      "city": "Kerala",
      "state": "Tamil Nadu",
      "street": "Pala-Ponkunam Road",
      "postal_code": "686577",
      "country": "IND",
      "type": "G50",
      "camera_type": "G",
      "speed_limit": "50",
      "direction": "260",
      "status": "A",
      "rotatable": true,
      "gps_status": "+"
    },
    {
      "id": 194404,
      "latitude": 9.649596,
      "longitude": 76.92691,
      "city": "Kolahalamedu",
      "state": "Tamil Nadu",
      "street": "Erattupetta - Peermade Road",
      "postal_code": "685503",
      "country": "IND",
      "type": "G30",
      "camera_type": "G",
      "speed_limit": "30",
      "direction": "120",
      "status": "A",
      "rotatable": true,
      "gps_status": "+"
    },
    {
      "id": 185253,
      "latitude": 9.678383,
      "longitude": 76.557686,
      "city": "Ettumanoor",
      "state": "Tamil Nadu",
      "street": "Vaikom Road",
      "postal_code": "686631",
      "country": "IND",
      "type": "G50",
      "camera_type": "G",
      "speed_limit": "50",
      "direction": "60",
      "status": "A",
      "rotatable": true,
      "gps_status": "+"
    },
    {
      "id": 185254,
      "latitude": 9.679201,
      "longitude": 76.557571,
      "city": "Ettumanoor",
      "state": "Tamil Nadu",
      "street": "Vaikom Road",
      "postal_code": "686631",
      "country": "IND",
      "type": "G50",
      "camera_type": "G",
      "speed_limit": "50",
      "direction": "335",
      "status": "A",
      "rotatable": true,
      "gps_status": "+"
    },
    {
      "id": 185202,
      "latitude": 9.675966,
      "longitude": 76.588989,
      "city": "Kottayam",
      "state": "Tamil Nadu",
      "street": "Ettumanoor-Pala Road",
      "postal_code": "686631",
      "country": "IND",
      "type": "G50",
      "camera_type": "G",
      "speed_limit": "50",
      "direction": "170",
      "status": "A",
      "rotatable": true,
      "gps_status": "+"
    },
    {
      "id": 185058,
      "latitude": 9.675556,
      "longitude": 76.697968,
      "city": "Kerala",
      "state": "Tamil Nadu",
      "street": "Pala-Ponkunam Road",
      "postal_code": "686577",
      "country": "IND",
      "type": "G80",
      "camera_type": "G",
      "speed_limit": "80",
      "direction": "55",
      "status": "A",
      "rotatable": true,
      "gps_status": "+"
    },
    {
      "id": 185057,
      "latitude": 9.675756,
      "longitude": 76.697769,
      "city": "Kerala",
      "state": "Tamil Nadu",
      "street": "Pala-Ponkunam Road",
      "postal_code": "686577",
      "country": "IND",
      "type": "G80",
      "camera_type": "G",
      "speed_limit": "80",
      "direction": "265",
      "status": "A",
      "rotatable": true,
      "gps_status": "+"
    },
    {
      "id": 194441,
      "latitude": 9.679617,
      "longitude": 76.788124,
      "city": "Poonjar",
      "state": "Tamil Nadu",
      "street": "Ettumanoor - Erattupetta - Poonjar Road",
      "postal_code": "686122",
      "country": "IND",
      "type": "G50",
      "camera_type": "G",
      "speed_limit": "50",
      "direction": "10",
      "status": "A",
      "rotatable": true,
      "gps_status": "+"
    },
    {
      "id": 205039,
      "latitude": 9.662993,
      "longitude": 77.159569,
      "city": "Idukki",
      "state": "Tamil Nadu",
      "street": "Munnar - Kumily Road",
      "postal_code": "685509",
      "country": "IND",
      "type": "G60",
      "camera_type": "G",
      "speed_limit": "60",
      "direction": "105",
      "status": "A",
      "rotatable": true,
      "gps_status": "+"
    },
    {
      "id": 185824,
      "latitude": 9.686275,
      "longitude": 76.614685,
      "city": "Kidangoor",
      "state": "Tamil Nadu",
      "street": "Ettumanoor - Erattupetta - Poonjar Road",
      "postal_code": "686752",
      "country": "IND",
      "type": "G40",
      "camera_type": "G",
      "speed_limit": "40",
      "direction": "35",
      "status": "A",
      "rotatable": true,
      "gps_status": "-"
    },
    {
      "id": 185823,
      "latitude": 9.686698,
      "longitude": 76.615547,
      "city": "Kidangoor",
      "state": "Tamil Nadu",
      "street": "Ettumanoor - Erattupetta - Poonjar Road",
      "postal_code": "686752",
      "country": "IND",
      "type": "G40",
      "camera_type": "G",
      "speed_limit": "40",
      "direction": "170",
      "status": "A",
      "rotatable": true,
      "gps_status": "+"
    },
    {
      "id": 185106,
      "latitude": 9.685759,
      "longitude": 76.777092,
      "city": "Kerala",
      "state": "Tamil Nadu",
      "street": "Sabarimala - Kodaikkanal Road",
      "postal_code": "686122",
      "country": "IND",
      "type": "G40",
      "camera_type": "G",
      "speed_limit": "40",
      "direction": "335",
      "status": "A",
      "rotatable": true,
      "gps_status": "+"
    },
    {
      "id": 185113,
      "latitude": 9.694464,
      "longitude": 76.767433,
      "city": "Kerala",
      "state": "Tamil Nadu",
      "street": "Ettumanoor - Erattupetta - Poonjar Road",
      "postal_code": "686121",
      "country": "IND",
      "type": "G50",
      "camera_type": "G",
      "speed_limit": "50",
      "direction": "240",
      "status": "A",
      "rotatable": true,
      "gps_status": "+"
    },
    {
      "id": 185092,
      "latitude": 9.690418,
      "longitude": 76.786659,
      "city": "Kerala",
      "state": "Tamil Nadu",
      "street": "Erattupetta-Peermade Road",
      "postal_code": "686580",
      "country": "IND",
      "type": "G50",
      "camera_type": "G",
      "speed_limit": "50",
      "direction": "325",
      "status": "A",
      "rotatable": true,
      "gps_status": "+"
    },
    {
      "id": 197745,
      "latitude": 9.692576,
      "longitude": 76.782318,
      "city": "Erattupetta",
      "state": "Tamil Nadu",
      "street": "Sabarimala - Kodaikkanal Road",
      "postal_code": "686122",
      "country": "IND",
      "type": "G30",
      "camera_type": "G",
      "speed_limit": "30",
      "direction": "10",
      "status": "A",
      "rotatable": true,
      "gps_status": "+"
    },
    {
      "id": 184649,
      "latitude": 9.696958,
      "longitude": 77.020821,
      "city": "Idukki",
      "state": "Tamil Nadu",
      "street": "Upputhara - Pasuppara Road",
      "postal_code": "685507",
      "country": "IND",
      "type": "G40",
      "camera_type": "G",
      "speed_limit": "40",
      "direction": "30",
      "status": "A",
      "rotatable": true,
      "gps_status": "+"
    },
    {
      "id": 185183,
      "latitude": 9.706055,
      "longitude": 76.66983,
      "city": "Pala",
      "state": "Tamil Nadu",
      "street": "Ettumanoor - Erattupetta - Poonjar Road",
      "postal_code": "686575",
      "country": "IND",
      "type": "G40",
      "camera_type": "G",
      "speed_limit": "40",
      "direction": "25",
      "status": "A",
      "rotatable": true,
      "gps_status": "+"
    },
    {
      "id": 194458,
      "latitude": 9.703071,
      "longitude": 76.684464,
      "city": "Pala",
      "state": "Tamil Nadu",
      "street": "Main Eastern Highway",
      "postal_code": "686575",
      "country": "IND",
      "type": "G50",
      "camera_type": "G",
      "speed_limit": "50",
      "direction": "70",
      "status": "A",
      "rotatable": true,
      "gps_status": "+"
    },
    {
      "id": 204941,
      "latitude": 9.709274,
      "longitude": 76.682617,
      "city": "Pala",
      "state": "Tamil Nadu",
      "street": "Main Eastern Highway",
      "postal_code": "686575",
      "country": "IND",
      "type": "G40",
      "camera_type": "G",
      "speed_limit": "40",
      "direction": "320",
      "status": "A",
      "rotatable": true,
      "gps_status": "+"
    },
    {
      "id": 185179,
      "latitude": 9.711044,
      "longitude": 76.681168,
      "city": "Pala",
      "state": "Tamil Nadu",
      "street": "Ettumanoor-Erattupetta-Poonjar Road",
      "postal_code": "686575",
      "country": "IND",
      "type": "G40",
      "camera_type": "G",
      "speed_limit": "40",
      "direction": "135",
      "status": "A",
      "rotatable": true,
      "gps_status": "+"
    },
    {
      "id": 194455,
      "latitude": 9.711329,
      "longitude": 76.698235,
      "city": "Pala",
      "state": "Tamil Nadu",
      "street": "Ettumanoor - Erattupetta - Poonjar Road",
      "postal_code": "686578",
      "country": "IND",
      "type": "G50",
      "camera_type": "G",
      "speed_limit": "50",
      "direction": "50",
      "status": "A",
      "rotatable": true,
      "gps_status": "+"
    },
    {
      "id": 185088,
      "latitude": 9.711917,
      "longitude": 76.693207,
      "city": "Pala",
      "state": "Tamil Nadu",
      "street": "Ettumanoor - Erattupetta - Poonjar Road",
      "postal_code": "686575",
      "country": "IND",
      "type": "G50",
      "camera_type": "G",
      "speed_limit": "50",
      "direction": "195",
      "status": "A",
      "rotatable": true,
      "gps_status": "+"
    },
    {
      "id": 185178,
      "latitude": 9.717101,
      "longitude": 76.682854,
      "city": "Kerala",
      "state": "Tamil Nadu",
      "street": "Pala- Ramapuram Road Pala- Uzhavoor Road",
      "postal_code": "686575",
      "country": "IND",
      "type": "G50",
      "camera_type": "G",
      "speed_limit": "50",
      "direction": "130",
      "status": "A",
      "rotatable": true,
      "gps_status": "+"
    },
    {
      "id": 185175,
      "latitude": 9.717236,
      "longitude": 76.689369,
      "city": "Pala",
      "state": "Tamil Nadu",
      "street": "Main Eastern Highway",
      "postal_code": "686575",
      "country": "IND",
      "type": "G40",
      "camera_type": "G",
      "speed_limit": "40",
      "direction": "235",
      "status": "A",
      "rotatable": true,
      "gps_status": "+"
    },
    {
      "id": 185180,
      "latitude": 9.720678,
      "longitude": 76.679398,
      "city": "Kerala",
      "state": "Tamil Nadu",
      "street": "Pala- Ramapuram Road Pala- Uzhavoor Road",
      "postal_code": "686575",
      "country": "IND",
      "type": "G50",
      "camera_type": "G",
      "speed_limit": "50",
      "direction": "270",
      "status": "A",
      "rotatable": true,
      "gps_status": "+"
    },
    {
      "id": 185173,
      "latitude": 9.732102,
      "longitude": 76.69278,
      "city": "Kerala",
      "state": "Tamil Nadu",
      "street": "Main Eastern Highway",
      "postal_code": "686575",
      "country": "IND",
      "type": "G40",
      "camera_type": "G",
      "speed_limit": "40",
      "direction": "100",
      "status": "A",
      "rotatable": true,
      "gps_status": "+"
    },
    {
      "id": 184613,
      "latitude": 9.7456,
      "longitude": 77.076797,
      "city": "Idukki",
      "state": "Tamil Nadu",
      "street": "Hill Highway",
      "postal_code": "685511",
      "country": "IND",
      "type": "G50",
      "camera_type": "G",
      "speed_limit": "50",
      "direction": "25",
      "status": "A",
      "rotatable": true,
      "gps_status": "+"
    },
    {
      "id": 204992,
      "latitude": 9.756158,
      "longitude": 77.119156,
      "city": "Idukki",
      "state": "Tamil Nadu",
      "street": "Thodupuzha - Puliyanmala Road",
      "postal_code": "688508",
      "country": "IND",
      "type": "G40",
      "camera_type": "G",
      "speed_limit": "40",
      "direction": "330",
      "status": "A",
      "rotatable": true,
      "gps_status": "+"
    }
  ]
}