{
  "metadata": {
    "total_cameras": 46,
    "region": "Tamil Nadu",
    "country": "India",
    "extracted_at": "2026-01-29T09:59:41.997504",
    "source": "scdb.info",
    "scraping_method": "comprehensive_grid"
  },
  "cameras": [
    {
      "id": 184869,
      "latitude": 8.807212,
      "longitude": 76.881386,
      "city": "Kerala",
      "state": "Tamil Nadu",
      "street": "MC Road",
      "postal_code": "695600",
      "country": "IND",
      "type": "G80",
      "camera_type": "G",
      "speed_limit": "80",
      "direction": "165",
      "status": "A",
      "rotatable": true,
      "gps_status": "+"
    },
    {
      "id": 184868,
      "latitude": 8.807325,
      "longitude": 76.881493,
      "city": "Kerala",
      "state": "Tamil Nadu",
      "street": "MC Road",
      "postal_code": "695600",
      "country": "IND",
      "type": "G80",
      "camera_type": "G",
      "speed_limit": "80",
      "direction": "105",
      "status": "A",
      "rotatable": true,
      "gps_status": "+"
    },
    {
      "id": 184652,
      "latitude": 8.817927,
      "longitude": 77.014771,
      "city": "Kerala",
      "state": "Tamil Nadu",
      "street": "Thiruvanathapuram - Thenmala Road",
      "postal_code": "691541",
      "country": "IND",
      "type": "G50",
      "camera_type": "G",
      "speed_limit": "50",
      "direction": "75",
      "status": "A",
      "rotatable": true,
      "gps_status": "+"
    },
    {
      "id": 184866,
      "latitude": 8.823617,
      "longitude": 76.882538,
      "city": "Kerala",
      "state": "Tamil Nadu",
      "street": "MC Road",
      "postal_code": "695600",
      "country": "IND",
      "type": "A",
      "camera_type": "A",
      "speed_limit": "/",
      "direction": "45",
      "status": "A",
      "rotatable": true,
      "gps_status": "+"
    },
    {
      "id": 184870,
      "latitude": 8.8237,
      "longitude": 76.881104,
      "city": "Kerala",
      "state": "Tamil Nadu",
      "street": "Parippally - Madathara Road",
      "postal_code": "691535",
      "country": "IND",
      "type": "G50",
      "camera_type": "G",
      "speed_limit": "50",
      "direction": "20",
      "status": "A",
      "rotatable": true,
      "gps_status": "+"
    },
    {
      "id": 184867,
      "latitude": 8.824001,
      "longitude": 76.882317,
      "city": "Kerala",
      "state": "Tamil Nadu",
      "street": "MC Road",
      "postal_code": "695600",
      "country": "IND",
      "type": "A",
      "camera_type": "A",
      "speed_limit": "/",
      "direction": "265",
      "status": "A",
      "rotatable": true,
      "gps_status": "+"
    },
    {
      "id": 184966,
      "latitude": 8.8262,
      "longitude": 76.917503,
      "city": "Kerala",
      "state": "Tamil Nadu",
      "street": "Varkala - Parippally - Madathara Road",
      "postal_code": "695608",
      "country": "IND",
      "type": "G50",
      "camera_type": "G",
      "speed_limit": "50",
      "direction": "50",
      "status": "A",
      "rotatable": true,
      "gps_status": "+"
    },
    {
      "id": 185117,
      "latitude": 8.858748,
      "longitude": 76.723587,
      "city": "Kollam",
      "state": "Tamil Nadu",
      "street": "NH66",
      "postal_code": "691578",
      "country": "IND",
      "type": "G70",
      "camera_type": "G",
      "speed_limit": "70",
      "direction": "245",
      "status": "A",
      "rotatable": true,
      "gps_status": "+"
    },
    {
      "id": 194426,
      "latitude": 8.857903,
      "longitude": 76.874367,
      "city": "Kuriyodu",
      "state": "Tamil Nadu",
      "street": "MC Road",
      "postal_code": "695600",
      "country": "IND",
      "type": "G80",
      "camera_type": "G",
      "speed_limit": "80",
      "direction": "195",
      "status": "A",
      "rotatable": true,
      "gps_status": "+"
    },
    {
      "id": 194427,
      "latitude": 8.857983,
      "longitude": 76.874413,
      "city": "Kuriyodu",
      "state": "Tamil Nadu",
      "street": "MC Road",
      "postal_code": "695600",
      "country": "IND",
      "type": "G80",
      "camera_type": "G",
      "speed_limit": "80",
      "direction": "95",
      "status": "A",
      "rotatable": true,
      "gps_status": "+"
    },
    {
      "id": 194453,
      "latitude": 8.861755,
      "longitude": 76.706665,
      "city": "Tirumukku",
      "state": "Tamil Nadu",
      "street": "Paravur Town Road",
      "postal_code": "691572",
      "country": "IND",
      "type": "G50",
      "camera_type": "G",
      "speed_limit": "50",
      "direction": "80",
      "status": "A",
      "rotatable": true,
      "gps_status": "+"
    },
    {
      "id": 194430,
      "latitude": 8.874098,
      "longitude": 76.869331,
      "city": "Chadayamangalam",
      "state": "Tamil Nadu",
      "street": "MC Road",
      "postal_code": "695600",
      "country": "IND",
      "type": "G50",
      "camera_type": "G",
      "speed_limit": "50",
      "direction": "250",
      "status": "A",
      "rotatable": true,
      "gps_status": "+"
    },
    {
      "id": 194433,
      "latitude": 8.895357,
      "longitude": 76.862083,
      "city": "Ayoor",
      "state": "Tamil Nadu",
      "street": "MC Road",
      "postal_code": "691533",
      "country": "IND",
      "type": "G50",
      "camera_type": "G",
      "speed_limit": "50",
      "direction": "40",
      "status": "A",
      "rotatable": true,
      "gps_status": "+"
    },
    {
      "id": 185007,
      "latitude": 8.897783,
      "longitude": 76.860405,
      "city": "Ayoor",
      "state": "Tamil Nadu",
      "street": "MC Road",
      "postal_code": "691533",
      "country": "IND",
      "type": "A",
      "camera_type": "A",
      "speed_limit": "/",
      "direction": "30",
      "status": "A",
      "rotatable": true,
      "gps_status": "-"
    },
    {
      "id": 185116,
      "latitude": 8.90656,
      "longitude": 76.762321,
      "city": "Kerala",
      "state": "Tamil Nadu",
      "street": "Oyur - Kottarakkara",
      "postal_code": "691537",
      "country": "IND",
      "type": "G50",
      "camera_type": "G",
      "speed_limit": "50",
      "direction": "175",
      "status": "A",
      "rotatable": true,
      "gps_status": "+"
    },
    {
      "id": 184642,
      "latitude": 8.903861,
      "longitude": 77.057442,
      "city": "Kerala",
      "state": "Tamil Nadu",
      "street": "Thiruvanathapuram - Thenmala Road",
      "postal_code": "691310",
      "country": "IND",
      "type": "G80",
      "camera_type": "G",
      "speed_limit": "80",
      "direction": "305",
      "status": "A",
      "rotatable": true,
      "gps_status": "+"
    },
    {
      "id": 185064,
      "latitude": 8.924828,
      "longitude": 76.736214,
      "city": "Kerala",
      "state": "Tamil Nadu",
      "street": "unknown",
      "postal_code": "691512",
      "country": "IND",
      "type": "G50",
      "camera_type": "G",
      "speed_limit": "50",
      "direction": "330",
      "status": "A",
      "rotatable": true,
      "gps_status": "+"
    },
    {
      "id": 184967,
      "latitude": 8.92766,
      "longitude": 76.9133,
      "city": "Ayoor",
      "state": "Tamil Nadu",
      "street": "Ayoor - Punalur Road",
      "postal_code": "691533",
      "country": "IND",
      "type": "G50",
      "camera_type": "G",
      "speed_limit": "50",
      "direction": "200",
      "status": "A",
      "rotatable": true,
      "gps_status": "-"
    },
    {
      "id": 185108,
      "latitude": 8.945542,
      "longitude": 76.77166,
      "city": "Kerala",
      "state": "Tamil Nadu",
      "street": "Oyur - Kottarakkara",
      "postal_code": "691512",
      "country": "IND",
      "type": "G50",
      "camera_type": "G",
      "speed_limit": "50",
      "direction": "90",
      "status": "A",
      "rotatable": true,
      "gps_status": "-"
    },
    {
      "id": 194383,
      "latitude": 8.967885,
      "longitude": 77.070503,
      "city": "Thenmala",
      "state": "Tamil Nadu",
      "street": "Kollam - Ottakkal road",
      "postal_code": "691308",
      "country": "IND",
      "type": "G50",
      "camera_type": "G",
      "speed_limit": "50",
      "direction": "200",
      "status": "A",
      "rotatable": true,
      "gps_status": "+"
    },
    {
      "id": 184445,
      "latitude": 8.9777,
      "longitude": 77.151802,
      "city": "Kerala",
      "state": "Tamil Nadu",
      "street": "NH744",
      "postal_code": "691309",
      "country": "IND",
      "type": "G50",
      "camera_type": "G",
      "speed_limit": "50",
      "direction": "65",
      "status": "A",
      "rotatable": true,
      "gps_status": "+"
    },
    {
      "id": 185118,
      "latitude": 8.980699,
      "longitude": 76.721275,
      "city": "Kerala",
      "state": "Tamil Nadu",
      "street": "NH744",
      "postal_code": "691505",
      "country": "IND",
      "type": "G50",
      "camera_type": "G",
      "speed_limit": "50",
      "direction": "145",
      "status": "A",
      "rotatable": true,
      "gps_status": "+"
    },
    {
      "id": 185062,
      "latitude": 8.993025,
      "longitude": 76.792015,
      "city": "Kottarakkara",
      "state": "Tamil Nadu",
      "street": "MC Road",
      "postal_code": "691500",
      "country": "IND",
      "type": "G60",
      "camera_type": "G",
      "speed_limit": "60",
      "direction": "125",
      "status": "A",
      "rotatable": true,
      "gps_status": "+"
    },
    {
      "id": 184936,
      "latitude": 8.984273,
      "longitude": 76.805153,
      "city": "Kottarakkara",
      "state": "Tamil Nadu",
      "street": "MC Road",
      "postal_code": "691500",
      "country": "IND",
      "type": "G80",
      "camera_type": "G",
      "speed_limit": "80",
      "direction": "235",
      "status": "A",
      "rotatable": true,
      "gps_status": "+"
    },
    {
      "id": 184935,
      "latitude": 8.984321,
      "longitude": 76.805092,
      "city": "Kottarakkara",
      "state": "Tamil Nadu",
      "street": "MC Road",
      "postal_code": "691500",
      "country": "IND",
      "type": "G80",
      "camera_type": "G",
      "speed_limit": "80",
      "direction": "275",
      "status": "A",
      "rotatable": true,
      "gps_status": "+"
    },
    {
      "id": 184440,
      "latitude": 8.981,
      "longitude": 77.153099,
      "city": "Kerala",
      "state": "Tamil Nadu",
      "street": "NH744",
      "postal_code": "691309",
      "country": "IND",
      "type": "G50",
      "camera_type": "G",
      "speed_limit": "50",
      "direction": "250",
      "status": "A",
      "rotatable": true,
      "gps_status": "+"
    },
    {
      "id": 194443,
      "latitude": 9.006207,
      "longitude": 76.772156,
      "city": "Kottarakkara",
      "state": "Tamil Nadu",
      "street": "Puthoor Road",
      "postal_code": "691500",
      "country": "IND",
      "type": "G50",
      "camera_type": "G",
      "speed_limit": "50",
      "direction": "335",
      "status": "A",
      "rotatable": true,
      "gps_status": "+"
    },
    {
      "id": 184942,
      "latitude": 9.005281,
      "longitude": 76.783234,
      "city": "Kottarakkara",
      "state": "Tamil Nadu",
      "street": "NH744",
      "postal_code": "691500",
      "country": "IND",
      "type": "A",
      "camera_type": "A",
      "speed_limit": "/",
      "direction": "200",
      "status": "A",
      "rotatable": true,
      "gps_status": "+"
    },
    {
      "id": 184940,
      "latitude": 9.005419,
      "longitude": 76.783531,
      "city": "Kottarakkara",
      "state": "Tamil Nadu",
      "street": "NH744",
      "postal_code": "691500",
      "country": "IND",
      "type": "A",
      "camera_type": "A",
      "speed_limit": "/",
      "direction": "355",
      "status": "A",
      "rotatable": true,
      "gps_status": "+"
    },
    {
      "id": 184941,
      "latitude": 9.005608,
      "longitude": 76.782928,
      "city": "Kottarakkara",
      "state": "Tamil Nadu",
      "street": "NH744",
      "postal_code": "691500",
      "country": "IND",
      "type": "A",
      "camera_type": "A",
      "speed_limit": "/",
      "direction": "275",
      "status": "A",
      "rotatable": true,
      "gps_status": "+"
    },
    {
      "id": 184943,
      "latitude": 9.005802,
      "longitude": 76.783249,
      "city": "Kottarakkara",
      "state": "Tamil Nadu",
      "street": "NH744",
      "postal_code": "691500",
      "country": "IND",
      "type": "A",
      "camera_type": "A",
      "speed_limit": "/",
      "direction": "310",
      "status": "A",
      "rotatable": true,
      "gps_status": "+"
    },
    {
      "id": 175490,
      "latitude": 9.017743,
      "longitude": 76.925262,
      "city": "Punalur",
      "state": "Tamil Nadu",
      "street": "Kollam - Ottakal road",
      "postal_code": "691305",
      "country": "IND",
      "type": "G30",
      "camera_type": "G",
      "speed_limit": "30",
      "direction": "190",
      "status": "A",
      "rotatable": true,
      "gps_status": "-"
    },
    {
      "id": 184889,
      "latitude": 9.026256,
      "longitude": 76.850815,
      "city": "Kerala",
      "state": "Tamil Nadu",
      "street": "Kollam - Ottakal road",
      "postal_code": "691305",
      "country": "IND",
      "type": "G30",
      "camera_type": "G",
      "speed_limit": "30",
      "direction": "195",
      "status": "A",
      "rotatable": true,
      "gps_status": "+"
    },
    {
      "id": 185121,
      "latitude": 9.041584,
      "longitude": 76.715096,
      "city": "Puthoor",
      "state": "Tamil Nadu",
      "street": "unknown",
      "postal_code": "691507",
      "country": "IND",
      "type": "G50",
      "camera_type": "G",
      "speed_limit": "50",
      "direction": "150",
      "status": "A",
      "rotatable": true,
      "gps_status": "+"
    },
    {
      "id": 185112,
      "latitude": 9.058038,
      "longitude": 76.7677,
      "city": "Kerala",
      "state": "Tamil Nadu",
      "street": "MC Road",
      "postal_code": "691521",
      "country": "IND",
      "type": "G50",
      "camera_type": "G",
      "speed_limit": "50",
      "direction": "140",
      "status": "A",
      "rotatable": true,
      "gps_status": "+"
    },
    {
      "id": 185111,
      "latitude": 9.0581,
      "longitude": 76.7677,
      "city": "Kerala",
      "state": "Tamil Nadu",
      "street": "MC Road",
      "postal_code": "691521",
      "country": "IND",
      "type": "G50",
      "camera_type": "G",
      "speed_limit": "50",
      "direction": "115",
      "status": "A",
      "rotatable": true,
      "gps_status": "+"
    },
    {
      "id": 185821,
      "latitude": 9.080249,
      "longitude": 76.752937,
      "city": "",
      "state": "Tamil Nadu",
      "street": "MC Road",
      "postal_code": "691521",
      "country": "IND",
      "type": "G50",
      "camera_type": "G",
      "speed_limit": "50",
      "direction": "95",
      "status": "A",
      "rotatable": true,
      "gps_status": "+"
    },
    {
      "id": 185040,
      "latitude": 9.087644,
      "longitude": 76.754578,
      "city": "Kerala",
      "state": "Tamil Nadu",
      "street": "MC Road",
      "postal_code": "691521",
      "country": "IND",
      "type": "G80",
      "camera_type": "G",
      "speed_limit": "80",
      "direction": "50",
      "status": "A",
      "rotatable": true,
      "gps_status": "-"
    },
    {
      "id": 185041,
      "latitude": 9.092817,
      "longitude": 76.753273,
      "city": "Kerala",
      "state": "Tamil Nadu",
      "street": "MC Road",
      "postal_code": "691526",
      "country": "IND",
      "type": "G80",
      "camera_type": "G",
      "speed_limit": "80",
      "direction": "5",
      "status": "A",
      "rotatable": true,
      "gps_status": "-"
    },
    {
      "id": 184879,
      "latitude": 9.088928,
      "longitude": 76.856049,
      "city": "Pathanapuram",
      "state": "Tamil Nadu",
      "street": "Pathanapuram - Kunnikode Road",
      "postal_code": "689695",
      "country": "IND",
      "type": "G70",
      "camera_type": "G",
      "speed_limit": "70",
      "direction": "260",
      "status": "A",
      "rotatable": true,
      "gps_status": "+"
    },
    {
      "id": 185043,
      "latitude": 9.115613,
      "longitude": 76.745094,
      "city": "Kerala",
      "state": "Tamil Nadu",
      "street": "MC Road",
      "postal_code": "691526",
      "country": "IND",
      "type": "G70",
      "camera_type": "G",
      "speed_limit": "70",
      "direction": "295",
      "status": "A",
      "rotatable": true,
      "gps_status": "+"
    },
    {
      "id": 185050,
      "latitude": 9.138388,
      "longitude": 76.729553,
      "city": "Kerala",
      "state": "Tamil Nadu",
      "street": "Adoor - Mundakayam Highway",
      "postal_code": "691553",
      "country": "IND",
      "type": "G50",
      "camera_type": "G",
      "speed_limit": "50",
      "direction": "120",
      "status": "A",
      "rotatable": true,
      "gps_status": "+"
    },
    {
      "id": 184888,
      "latitude": 9.120348,
      "longitude": 76.850929,
      "city": "Kerala",
      "state": "Tamil Nadu",
      "street": "Adoor - Kalanjur Road",
      "postal_code": "691524",
      "country": "IND",
      "type": "G40",
      "camera_type": "G",
      "speed_limit": "40",
      "direction": "55",
      "status": "A",
      "rotatable": true,
      "gps_status": "+"
    },
    {
      "id": 185066,
      "latitude": 9.150579,
      "longitude": 76.728874,
      "city": "Adoor",
      "state": "Tamil Nadu",
      "street": "MC Road",
      "postal_code": "691523",
      "country": "IND",
      "type": "G50",
      "camera_type": "G",
      "speed_limit": "50",
      "direction": "5",
      "status": "A",
      "rotatable": true,
      "gps_status": "+"
    },
    {
      "id": 185065,
      "latitude": 9.150652,
      "longitude": 76.728874,
      "city": "Adoor",
      "state": "Tamil Nadu",
      "street": "MC Road",
      "postal_code": "691523",
      "country": "IND",
      "type": "G50",
      "camera_type": "G",
      "speed_limit": "50",
      "direction": "280",
      "status": "A",
      "rotatable": true,
      "gps_status": "+"
    },
    {
      "id": 185045,
      "latitude": 9.152599,
      "longitude": 76.735847,
      "city": "Adoor",
      "state": "Tamil Nadu",
      "street": "Central Toll",
      "postal_code": "00000",
      "country": "IND",
      "type": "G50",
      "camera_type": "G",
      "speed_limit": "50",
      "direction": "80",
      "status": "A",
      "rotatable": true,
      "gps_status": "+"
    }
  ]
}