{
  "metadata": {
    "total_cameras": 107,
    "region": "Tamil Nadu",
    "country": "India",
    "extracted_at": "2026-01-29T12:08:45.900356",
    "source": "scdb.info",
    "scraping_method": "comprehensive_grid"
  },
  "cameras": [
    {
      "id": 219130,
      "latitude": 11.179561,
      "longitude": 75.854042,
      "city": "Ramanattukara",
      "state": "Tamil Nadu",
      "street": "Old NH17 Road",
      "postal_code": "673633",
      "country": "IND",
      "type": "G50",
      "camera_type": "G",
      "speed_limit": "50",
      "direction": "80",
      "status": "A",
      "rotatable": true,
      "gps_status": "+"
    },
    {
      "id": 219128,
      "latitude": 11.178111,
      "longitude": 75.879349,
      "city": "Kondotty",
      "state": "Tamil Nadu",
      "street": "Calicut-Malappuram-Palakkad Highway NH 966",
      "postal_code": "673637",
      "country": "IND",
      "type": "G60",
      "camera_type": "G",
      "speed_limit": "60",
      "direction": "175",
      "status": "A",
      "rotatable": true,
      "gps_status": "+"
    },
    {
      "id": 219129,
      "latitude": 11.1806,
      "longitude": 75.885201,
      "city": "Kondotty",
      "state": "Tamil Nadu",
      "street": "Calicut-Malappuram-Palakkad Highway NH 966",
      "postal_code": "673637",
      "country": "IND",
      "type": "G40",
      "camera_type": "G",
      "speed_limit": "40",
      "direction": "145",
      "status": "A",
      "rotatable": true,
      "gps_status": "+"
    },
    {
      "id": 219801,
      "latitude": 11.209453,
      "longitude": 75.79805,
      "city": "Beypore",
      "state": "Tamil Nadu",
      "street": "Beypore Road",
      "postal_code": "673028",
      "country": "IND",
      "type": "G40",
      "camera_type": "G",
      "speed_limit": "40",
      "direction": "345",
      "status": "A",
      "rotatable": true,
      "gps_status": "+"
    },
    {
      "id": 219800,
      "latitude": 11.208613,
      "longitude": 75.808487,
      "city": "Kozhikode",
      "state": "Tamil Nadu",
      "street": "Old NH17 Road",
      "postal_code": "673018",
      "country": "IND",
      "type": "G40",
      "camera_type": "G",
      "speed_limit": "40",
      "direction": "10",
      "status": "A",
      "rotatable": true,
      "gps_status": "+"
    },
    {
      "id": 185492,
      "latitude": 11.209101,
      "longitude": 76.226173,
      "city": "Wandoor",
      "state": "Tamil Nadu",
      "street": "wandoor - Nilambur Road",
      "postal_code": "679328",
      "country": "IND",
      "type": "G80",
      "camera_type": "G",
      "speed_limit": "80",
      "direction": "180",
      "status": "A",
      "rotatable": true,
      "gps_status": "+"
    },
    {
      "id": 194511,
      "latitude": 11.222878,
      "longitude": 76.146187,
      "city": "Edavanna",
      "state": "Tamil Nadu",
      "street": "Kozhikode - Nilmbur - Gudallur Road",
      "postal_code": "676541",
      "country": "IND",
      "type": "G80",
      "camera_type": "G",
      "speed_limit": "80",
      "direction": "45",
      "status": "A",
      "rotatable": true,
      "gps_status": "+"
    },
    {
      "id": 219948,
      "latitude": 11.230179,
      "longitude": 75.846306,
      "city": "Kozhikode",
      "state": "Tamil Nadu",
      "street": "Mankavu-Pantheerankave Road",
      "postal_code": "673027",
      "country": "IND",
      "type": "G40",
      "camera_type": "G",
      "speed_limit": "40",
      "direction": "10",
      "status": "A",
      "rotatable": true,
      "gps_status": "+"
    },
    {
      "id": 219944,
      "latitude": 11.236476,
      "longitude": 75.868004,
      "city": "Kozhikode",
      "state": "Tamil Nadu",
      "street": "Perumanna Road",
      "postal_code": "673027",
      "country": "IND",
      "type": "G40",
      "camera_type": "G",
      "speed_limit": "40",
      "direction": "240",
      "status": "A",
      "rotatable": true,
      "gps_status": "+"
    },
    {
      "id": 219220,
      "latitude": 11.245555,
      "longitude": 75.974052,
      "city": "Kerala",
      "state": "Tamil Nadu",
      "street": "Kavanakkallu-Areekode Road",
      "postal_code": "673649",
      "country": "IND",
      "type": "G40",
      "camera_type": "G",
      "speed_limit": "40",
      "direction": "145",
      "status": "A",
      "rotatable": true,
      "gps_status": "+"
    },
    {
      "id": 185444,
      "latitude": 11.239753,
      "longitude": 76.046631,
      "city": "Kerala",
      "state": "Tamil Nadu",
      "street": "Quilandy - Thamarassery - Edavanna Road",
      "postal_code": "673639",
      "country": "IND",
      "type": "G50",
      "camera_type": "G",
      "speed_limit": "50",
      "direction": "180",
      "status": "A",
      "rotatable": true,
      "gps_status": "+"
    },
    {
      "id": 219949,
      "latitude": 11.266703,
      "longitude": 75.88427,
      "city": "Kozhikode",
      "state": "Tamil Nadu",
      "street": "Mavoor-Medical College Road",
      "postal_code": "673008",
      "country": "IND",
      "type": "G40",
      "camera_type": "G",
      "speed_limit": "40",
      "direction": "280",
      "status": "A",
      "rotatable": true,
      "gps_status": "+"
    },
    {
      "id": 174821,
      "latitude": 11.269592,
      "longitude": 76.017059,
      "city": "Kerala",
      "state": "Tamil Nadu",
      "street": "koyilandy -gudallur - edavanna road",
      "postal_code": "673602",
      "country": "IND",
      "type": "G50",
      "camera_type": "G",
      "speed_limit": "50",
      "direction": "85",
      "status": "A",
      "rotatable": true,
      "gps_status": "+"
    },
    {
      "id": 180766,
      "latitude": 11.283874,
      "longitude": 76.237091,
      "city": "Nilambur",
      "state": "Kerala",
      "street": "28 Valanchery - Nilambur Road",
      "postal_code": "679330",
      "country": "IND",
      "type": "G40",
      "camera_type": "G",
      "speed_limit": "40",
      "direction": "230",
      "status": "A",
      "rotatable": true,
      "gps_status": "-"
    },
    {
      "id": 219947,
      "latitude": 11.292814,
      "longitude": 75.82251,
      "city": "Kozhikode",
      "state": "Tamil Nadu",
      "street": "Wayanad Road",
      "postal_code": "673009",
      "country": "IND",
      "type": "G60",
      "camera_type": "G",
      "speed_limit": "60",
      "direction": "150",
      "status": "A",
      "rotatable": true,
      "gps_status": "+"
    },
    {
      "id": 219943,
      "latitude": 11.304264,
      "longitude": 75.872177,
      "city": "Kozhikode",
      "state": "Tamil Nadu",
      "street": "Kozhikode-Wayand Road",
      "postal_code": "673571",
      "country": "IND",
      "type": "G40",
      "camera_type": "G",
      "speed_limit": "40",
      "direction": "300",
      "status": "A",
      "rotatable": true,
      "gps_status": "+"
    },
    {
      "id": 219946,
      "latitude": 11.30614,
      "longitude": 75.878754,
      "city": "Kozhikode",
      "state": "Tamil Nadu",
      "street": "NH766",
      "postal_code": "673571",
      "country": "IND",
      "type": "G40",
      "camera_type": "G",
      "speed_limit": "40",
      "direction": "220",
      "status": "A",
      "rotatable": true,
      "gps_status": "+"
    },
    {
      "id": 219945,
      "latitude": 11.306553,
      "longitude": 75.87925,
      "city": "Kozhikode",
      "state": "Tamil Nadu",
      "street": "NH766",
      "postal_code": "673571",
      "country": "IND",
      "type": "G40",
      "camera_type": "G",
      "speed_limit": "40",
      "direction": "35",
      "status": "A",
      "rotatable": true,
      "gps_status": "+"
    },
    {
      "id": 219614,
      "latitude": 11.318907,
      "longitude": 75.94088,
      "city": "Kerala",
      "state": "Tamil Nadu",
      "street": "unknown",
      "postal_code": "673601",
      "country": "IND",
      "type": "G50",
      "camera_type": "G",
      "speed_limit": "50",
      "direction": "150",
      "status": "A",
      "rotatable": true,
      "gps_status": "+"
    },
    {
      "id": 219613,
      "latitude": 11.317624,
      "longitude": 75.996368,
      "city": "Mukkam",
      "state": "Tamil Nadu",
      "street": "unknown",
      "postal_code": "673602",
      "country": "IND",
      "type": "G80",
      "camera_type": "G",
      "speed_limit": "80",
      "direction": "5",
      "status": "A",
      "rotatable": true,
      "gps_status": "+"
    },
    {
      "id": 219502,
      "latitude": 11.333747,
      "longitude": 75.762924,
      "city": "Kozhikode",
      "state": "Tamil Nadu",
      "street": "Puthiyangadi - Koothuparamba Road",
      "postal_code": "673021",
      "country": "IND",
      "type": "G40",
      "camera_type": "G",
      "speed_limit": "40",
      "direction": "355",
      "status": "A",
      "rotatable": true,
      "gps_status": "+"
    },
    {
      "id": 219501,
      "latitude": 11.342784,
      "longitude": 75.76091,
      "city": "Atholi",
      "state": "Tamil Nadu",
      "street": "kuttiyadi Road",
      "postal_code": "673323",
      "country": "IND",
      "type": "G40",
      "camera_type": "G",
      "speed_limit": "40",
      "direction": "355",
      "status": "A",
      "rotatable": true,
      "gps_status": "+"
    },
    {
      "id": 219462,
      "latitude": 11.333362,
      "longitude": 75.892105,
      "city": "Kozhikode",
      "state": "Tamil Nadu",
      "street": "NH766",
      "postal_code": "673571",
      "country": "IND",
      "type": "G40",
      "camera_type": "G",
      "speed_limit": "40",
      "direction": "325",
      "status": "A",
      "rotatable": true,
      "gps_status": "+"
    },
    {
      "id": 219461,
      "latitude": 11.345014,
      "longitude": 75.900291,
      "city": "Kerala",
      "state": "Tamil Nadu",
      "street": "NH766",
      "postal_code": "673571",
      "country": "IND",
      "type": "G40",
      "camera_type": "G",
      "speed_limit": "40",
      "direction": "100",
      "status": "A",
      "rotatable": true,
      "gps_status": "+"
    },
    {
      "id": 219500,
      "latitude": 11.359901,
      "longitude": 75.742004,
      "city": "Atholi",
      "state": "Tamil Nadu",
      "street": "Old NH17 Road",
      "postal_code": "673303",
      "country": "IND",
      "type": "G40",
      "camera_type": "G",
      "speed_limit": "40",
      "direction": "5",
      "status": "A",
      "rotatable": true,
      "gps_status": "+"
    },
    {
      "id": 219460,
      "latitude": 11.366874,
      "longitude": 75.862137,
      "city": "Kerala",
      "state": "Tamil Nadu",
      "street": "Kappad - Thusharagiri - Adivaram road",
      "postal_code": "673585",
      "country": "IND",
      "type": "G40",
      "camera_type": "G",
      "speed_limit": "40",
      "direction": "210",
      "status": "A",
      "rotatable": true,
      "gps_status": "+"
    },
    {
      "id": 219611,
      "latitude": 11.368458,
      "longitude": 75.929718,
      "city": "Koduvally",
      "state": "Tamil Nadu",
      "street": "Koduvally-Omassery Road",
      "postal_code": "673572",
      "country": "IND",
      "type": "G80",
      "camera_type": "G",
      "speed_limit": "80",
      "direction": "195",
      "status": "A",
      "rotatable": true,
      "gps_status": "+"
    },
    {
      "id": 219661,
      "latitude": 11.3698,
      "longitude": 75.959099,
      "city": "Omassery",
      "state": "Tamil Nadu",
      "street": "Quilandy - Thamarassery - Edavanna Road",
      "postal_code": "673582",
      "country": "IND",
      "type": "G40",
      "camera_type": "G",
      "speed_limit": "40",
      "direction": "90",
      "status": "A",
      "rotatable": true,
      "gps_status": "+"
    },
    {
      "id": 219704,
      "latitude": 11.380601,
      "longitude": 75.725784,
      "city": "Kerala",
      "state": "Tamil Nadu",
      "street": "Kappad-Thiruvangoor Road",
      "postal_code": "673318",
      "country": "IND",
      "type": "G40",
      "camera_type": "G",
      "speed_limit": "40",
      "direction": "45",
      "status": "A",
      "rotatable": true,
      "gps_status": "+"
    },
    {
      "id": 219499,
      "latitude": 11.383647,
      "longitude": 75.738342,
      "city": "Atholi",
      "state": "Tamil Nadu",
      "street": "Kappad - Thusharagiri - Adivaram road",
      "postal_code": "673318",
      "country": "IND",
      "type": "G40",
      "camera_type": "G",
      "speed_limit": "40",
      "direction": "195",
      "status": "A",
      "rotatable": true,
      "gps_status": "+"
    },
    {
      "id": 220463,
      "latitude": 11.38745,
      "longitude": 76.354416,
      "city": "Punnakkal",
      "state": "Tamil Nadu",
      "street": "Kozhikode - Nilmbur - Gudallur Road",
      "postal_code": "679333",
      "country": "IND",
      "type": "G40",
      "camera_type": "G",
      "speed_limit": "40",
      "direction": "10",
      "status": "A",
      "rotatable": true,
      "gps_status": "-"
    },
    {
      "id": 219612,
      "latitude": 11.405058,
      "longitude": 75.929985,
      "city": "Thamarassery",
      "state": "Tamil Nadu",
      "street": "Kozhikode Wayanad Road",
      "postal_code": "673572",
      "country": "IND",
      "type": "G70",
      "camera_type": "G",
      "speed_limit": "70",
      "direction": "215",
      "status": "A",
      "rotatable": true,
      "gps_status": "+"
    },
    {
      "id": 220519,
      "latitude": 11.419781,
      "longitude": 75.831238,
      "city": "Kerala",
      "state": "Tamil Nadu",
      "street": "Kozhikode Balussery Road",
      "postal_code": "673613",
      "country": "IND",
      "type": "G50",
      "camera_type": "G",
      "speed_limit": "50",
      "direction": "190",
      "status": "A",
      "rotatable": true,
      "gps_status": "+"
    },
    {
      "id": 219247,
      "latitude": 11.448934,
      "longitude": 75.774559,
      "city": "Ulliyeri",
      "state": "Tamil Nadu",
      "street": "Quilandy - Thamarassery - Edavanna Road",
      "postal_code": "673323",
      "country": "IND",
      "type": "G40",
      "camera_type": "G",
      "speed_limit": "40",
      "direction": "45",
      "status": "A",
      "rotatable": true,
      "gps_status": "+"
    },
    {
      "id": 220518,
      "latitude": 11.44792,
      "longitude": 75.825699,
      "city": "Balusseri",
      "state": "Tamil Nadu",
      "street": "Quilandy - Thamarassery - Edavanna Road",
      "postal_code": "673612",
      "country": "IND",
      "type": "G40",
      "camera_type": "G",
      "speed_limit": "40",
      "direction": "115",
      "status": "A",
      "rotatable": true,
      "gps_status": "+"
    },
    {
      "id": 220426,
      "latitude": 11.435855,
      "longitude": 75.902596,
      "city": "Kerala",
      "state": "Tamil Nadu",
      "street": "Quilandy - Thamarassery - Edavanna Road",
      "postal_code": "673612",
      "country": "IND",
      "type": "G80",
      "camera_type": "G",
      "speed_limit": "80",
      "direction": "100",
      "status": "A",
      "rotatable": true,
      "gps_status": "+"
    },
    {
      "id": 219248,
      "latitude": 11.481453,
      "longitude": 75.774826,
      "city": "Kerala",
      "state": "Tamil Nadu",
      "street": "kozhikode-kuttiyadi road",
      "postal_code": "673614",
      "country": "IND",
      "type": "G40",
      "camera_type": "G",
      "speed_limit": "40",
      "direction": "320",
      "status": "A",
      "rotatable": true,
      "gps_status": "+"
    },
    {
      "id": 219405,
      "latitude": 11.4835,
      "longitude": 76.008598,
      "city": "Adivaram",
      "state": "Tamil Nadu",
      "street": "NH766",
      "postal_code": "673586",
      "country": "IND",
      "type": "G40",
      "camera_type": "G",
      "speed_limit": "40",
      "direction": "250",
      "status": "A",
      "rotatable": true,
      "gps_status": "+"
    },
    {
      "id": 219127,
      "latitude": 11.512721,
      "longitude": 75.612885,
      "city": "Kerala",
      "state": "Tamil Nadu",
      "street": "payyoli beach road",
      "postal_code": "673522",
      "country": "IND",
      "type": "G40",
      "camera_type": "G",
      "speed_limit": "40",
      "direction": "295",
      "status": "A",
      "rotatable": true,
      "gps_status": "+"
    },
    {
      "id": 220424,
      "latitude": 11.521847,
      "longitude": 75.633514,
      "city": "Kerala",
      "state": "Tamil Nadu",
      "street": "Payyoli - Perambra Road",
      "postal_code": "673523",
      "country": "IND",
      "type": "G50",
      "camera_type": "G",
      "speed_limit": "50",
      "direction": "25",
      "status": "A",
      "rotatable": true,
      "gps_status": "+"
    },
    {
      "id": 219023,
      "latitude": 11.529226,
      "longitude": 75.708153,
      "city": "Kerala",
      "state": "Tamil Nadu",
      "street": "Payyoli - Perambra Road",
      "postal_code": "673523",
      "country": "IND",
      "type": "G50",
      "camera_type": "G",
      "speed_limit": "50",
      "direction": "205",
      "status": "A",
      "rotatable": true,
      "gps_status": "+"
    },
    {
      "id": 219401,
      "latitude": 11.517671,
      "longitude": 76.02121,
      "city": "Vythiri",
      "state": "Tamil Nadu",
      "street": "Wayanad Road",
      "postal_code": "673576",
      "country": "IND",
      "type": "G50",
      "camera_type": "G",
      "speed_limit": "50",
      "direction": "75",
      "status": "A",
      "rotatable": true,
      "gps_status": "+"
    },
    {
      "id": 220001,
      "latitude": 11.547632,
      "longitude": 76.227676,
      "city": "Vythiri",
      "state": "Tamil Nadu",
      "street": "Calicut - Vythiri - Gudalur Road",
      "postal_code": "673581",
      "country": "IND",
      "type": "G80",
      "camera_type": "G",
      "speed_limit": "80",
      "direction": "90",
      "status": "A",
      "rotatable": true,
      "gps_status": "+"
    },
    {
      "id": 219869,
      "latitude": 11.564394,
      "longitude": 75.723007,
      "city": "Kerala",
      "state": "Tamil Nadu",
      "street": "Perambra-Chaniyam kadavu - Vadakara Road",
      "postal_code": "673525",
      "country": "IND",
      "type": "G40",
      "camera_type": "G",
      "speed_limit": "40",
      "direction": "160",
      "status": "A",
      "rotatable": true,
      "gps_status": "+"
    },
    {
      "id": 219871,
      "latitude": 11.566499,
      "longitude": 75.755135,
      "city": "Perambra",
      "state": "Tamil Nadu",
      "street": "Puthiyangadi - Koothuparamba Road",
      "postal_code": "673525",
      "country": "IND",
      "type": "G40",
      "camera_type": "G",
      "speed_limit": "40",
      "direction": "295",
      "status": "A",
      "rotatable": true,
      "gps_status": "+"
    },
    {
      "id": 219870,
      "latitude": 11.550004,
      "longitude": 75.764847,
      "city": "Perambra",
      "state": "Tamil Nadu",
      "street": "Puthiyangadi - Koothuparamba Road",
      "postal_code": "673525",
      "country": "IND",
      "type": "G40",
      "camera_type": "G",
      "speed_limit": "40",
      "direction": "165",
      "status": "A",
      "rotatable": true,
      "gps_status": "+"
    },
    {
      "id": 220000,
      "latitude": 11.559544,
      "longitude": 76.224266,
      "city": "Kerala",
      "state": "Tamil Nadu",
      "street": "Vaduvanchal - Kolagappara Road",
      "postal_code": "673593",
      "country": "IND",
      "type": "G40",
      "camera_type": "G",
      "speed_limit": "40",
      "direction": "310",
      "status": "A",
      "rotatable": true,
      "gps_status": "+"
    },
    {
      "id": 218930,
      "latitude": 11.589989,
      "longitude": 75.604958,
      "city": "Vadakara",
      "state": "Tamil Nadu",
      "street": "Perambra-Chaniyam kadavu - Vadakara Road",
      "postal_code": "670109",
      "country": "IND",
      "type": "G50",
      "camera_type": "G",
      "speed_limit": "50",
      "direction": "290",
      "status": "A",
      "rotatable": true,
      "gps_status": "+"
    },
    {
      "id": 218932,
      "latitude": 11.590772,
      "longitude": 75.581177,
      "city": "Vadakara",
      "state": "Tamil Nadu",
      "street": "unknown",
      "postal_code": "670109",
      "country": "IND",
      "type": "G30",
      "camera_type": "G",
      "speed_limit": "30",
      "direction": "200",
      "status": "A",
      "rotatable": true,
      "gps_status": "+"
    },
    {
      "id": 218933,
      "latitude": 11.596416,
      "longitude": 75.589188,
      "city": "Vadakara",
      "state": "Tamil Nadu",
      "street": "Old NH Road",
      "postal_code": "670109",
      "country": "IND",
      "type": "G50",
      "camera_type": "G",
      "speed_limit": "50",
      "direction": "105",
      "status": "A",
      "rotatable": true,
      "gps_status": "+"
    },
    {
      "id": 218929,
      "latitude": 11.608117,
      "longitude": 75.580635,
      "city": "Vadakara",
      "state": "Tamil Nadu",
      "street": "Old NH Road",
      "postal_code": "670109",
      "country": "IND",
      "type": "G50",
      "camera_type": "G",
      "speed_limit": "50",
      "direction": "40",
      "status": "A",
      "rotatable": true,
      "gps_status": "-"
    },
    {
      "id": 220123,
      "latitude": 11.590537,
      "longitude": 75.669655,
      "city": "Kerala",
      "state": "Tamil Nadu",
      "street": "Perambra-Chaniyam kadavu - Vadakara Road",
      "postal_code": "673541",
      "country": "IND",
      "type": "G60",
      "camera_type": "G",
      "speed_limit": "60",
      "direction": "155",
      "status": "A",
      "rotatable": true,
      "gps_status": "+"
    },
    {
      "id": 219018,
      "latitude": 11.592358,
      "longitude": 75.766685,
      "city": "Kerala",
      "state": "Tamil Nadu",
      "street": "Puthiyangadi - Koothuparamba Road",
      "postal_code": "673525",
      "country": "IND",
      "type": "G80",
      "camera_type": "G",
      "speed_limit": "80",
      "direction": "255",
      "status": "A",
      "rotatable": true,
      "gps_status": "+"
    },
    {
      "id": 219774,
      "latitude": 11.607324,
      "longitude": 76.083473,
      "city": "Kalpetta",
      "state": "Tamil Nadu",
      "street": "unknown",
      "postal_code": "673121",
      "country": "IND",
      "type": "G40",
      "camera_type": "G",
      "speed_limit": "40",
      "direction": "340",
      "status": "A",
      "rotatable": true,
      "gps_status": "+"
    },
    {
      "id": 220124,
      "latitude": 11.623721,
      "longitude": 75.626549,
      "city": "Kerala",
      "state": "Tamil Nadu",
      "street": "Vatakara - Villiappally - Thanneerpanthal - Chelakkad Road",
      "postal_code": "673104",
      "country": "IND",
      "type": "G40",
      "camera_type": "G",
      "speed_limit": "40",
      "direction": "95",
      "status": "A",
      "rotatable": true,
      "gps_status": "+"
    },
    {
      "id": 219021,
      "latitude": 11.645243,
      "longitude": 75.754929,
      "city": "Kerala",
      "state": "Tamil Nadu",
      "street": "Puthiyangadi - Koothuparamba Road",
      "postal_code": "673508",
      "country": "IND",
      "type": "G80",
      "camera_type": "G",
      "speed_limit": "80",
      "direction": "155",
      "status": "A",
      "rotatable": true,
      "gps_status": "-"
    },
    {
      "id": 219772,
      "latitude": 11.63459,
      "longitude": 76.088684,
      "city": "Vythiri",
      "state": "Tamil Nadu",
      "street": "Mananthavady- Kalpetta road",
      "postal_code": "673124",
      "country": "IND",
      "type": "G40",
      "camera_type": "G",
      "speed_limit": "40",
      "direction": "230",
      "status": "A",
      "rotatable": true,
      "gps_status": "+"
    },
    {
      "id": 219771,
      "latitude": 11.641218,
      "longitude": 76.107353,
      "city": "Vythiri",
      "state": "Tamil Nadu",
      "street": "Kalpetta-Sulthan Bathery Road",
      "postal_code": "673121",
      "country": "IND",
      "type": "G80",
      "camera_type": "G",
      "speed_limit": "80",
      "direction": "15",
      "status": "A",
      "rotatable": true,
      "gps_status": "+"
    },
    {
      "id": 218931,
      "latitude": 11.654571,
      "longitude": 75.605476,
      "city": "Orkkatteri",
      "state": "Tamil Nadu",
      "street": "Vadakara - Nadapuram Road",
      "postal_code": "673106",
      "country": "IND",
      "type": "G50",
      "camera_type": "G",
      "speed_limit": "50",
      "direction": "50",
      "status": "A",
      "rotatable": true,
      "gps_status": "-"
    },
    {
      "id": 219019,
      "latitude": 11.65556,
      "longitude": 75.748405,
      "city": "Kerala",
      "state": "Tamil Nadu",
      "street": "Puthiyangadi - Koothuparamba Road",
      "postal_code": "673507",
      "country": "IND",
      "type": "G80",
      "camera_type": "G",
      "speed_limit": "80",
      "direction": "145",
      "status": "A",
      "rotatable": true,
      "gps_status": "+"
    },
    {
      "id": 219776,
      "latitude": 11.669683,
      "longitude": 76.079315,
      "city": "Vythiri",
      "state": "Tamil Nadu",
      "street": "Mananthavady- Kalpetta road",
      "postal_code": "673124",
      "country": "IND",
      "type": "G80",
      "camera_type": "G",
      "speed_limit": "80",
      "direction": "70",
      "status": "A",
      "rotatable": true,
      "gps_status": "+"
    },
    {
      "id": 219889,
      "latitude": 11.658479,
      "longitude": 76.247566,
      "city": "Sultan Bathery",
      "state": "Tamil Nadu",
      "street": "Kalpetta-Sulthan Bathery Road",
      "postal_code": "673592",
      "country": "IND",
      "type": "G40",
      "camera_type": "G",
      "speed_limit": "40",
      "direction": "125",
      "status": "A",
      "rotatable": true,
      "gps_status": "+"
    },
    {
      "id": 218965,
      "latitude": 11.663191,
      "longitude": 76.268051,
      "city": "Sultan Bathery",
      "state": "Tamil Nadu",
      "street": "Gudalur-Sultan Bathery Rd",
      "postal_code": "673592",
      "country": "IND",
      "type": "G30",
      "camera_type": "G",
      "speed_limit": "30",
      "direction": "15",
      "status": "A",
      "rotatable": true,
      "gps_status": "+"
    },
    {
      "id": 218963,
      "latitude": 11.668505,
      "longitude": 76.269142,
      "city": "Sultan Bathery",
      "state": "Tamil Nadu",
      "street": "Kozhikode - Kollegal Highway",
      "postal_code": "673592",
      "country": "IND",
      "type": "G80",
      "camera_type": "G",
      "speed_limit": "80",
      "direction": "125",
      "status": "A",
      "rotatable": true,
      "gps_status": "+"
    },
    {
      "id": 219024,
      "latitude": 11.689409,
      "longitude": 75.650848,
      "city": "Kerala",
      "state": "Tamil Nadu",
      "street": "Puthiyangadi - Koothuparamba Road",
      "postal_code": "673505",
      "country": "IND",
      "type": "G80",
      "camera_type": "G",
      "speed_limit": "80",
      "direction": "220",
      "status": "A",
      "rotatable": true,
      "gps_status": "+"
    },
    {
      "id": 219025,
      "latitude": 11.688337,
      "longitude": 75.670593,
      "city": "Kerala",
      "state": "Tamil Nadu",
      "street": "Puthiyangadi - Koothuparamba Road",
      "postal_code": "673505",
      "country": "IND",
      "type": "G50",
      "camera_type": "G",
      "speed_limit": "50",
      "direction": "110",
      "status": "A",
      "rotatable": true,
      "gps_status": "+"
    },
    {
      "id": 220010,
      "latitude": 11.678634,
      "longitude": 75.700813,
      "city": "Kerala",
      "state": "Tamil Nadu",
      "street": "Puthiyangadi - Koothuparamba Road",
      "postal_code": "673505",
      "country": "IND",
      "type": "G40",
      "camera_type": "G",
      "speed_limit": "40",
      "direction": "325",
      "status": "A",
      "rotatable": true,
      "gps_status": "+"
    },
    {
      "id": 219020,
      "latitude": 11.671578,
      "longitude": 75.769897,
      "city": "Kerala",
      "state": "Tamil Nadu",
      "street": "MDR",
      "postal_code": "673508",
      "country": "IND",
      "type": "G60",
      "camera_type": "G",
      "speed_limit": "60",
      "direction": "340",
      "status": "A",
      "rotatable": true,
      "gps_status": "+"
    },
    {
      "id": 219067,
      "latitude": 11.68285,
      "longitude": 75.974358,
      "city": "Vythiri",
      "state": "Tamil Nadu",
      "street": "unknown",
      "postal_code": "670575",
      "country": "IND",
      "type": "G80",
      "camera_type": "G",
      "speed_limit": "80",
      "direction": "305",
      "status": "A",
      "rotatable": true,
      "gps_status": "+"
    },
    {
      "id": 219490,
      "latitude": 11.683701,
      "longitude": 76.07711,
      "city": "Vythiri",
      "state": "Tamil Nadu",
      "street": "Mananthavady- Kalpetta road",
      "postal_code": "673124",
      "country": "IND",
      "type": "G40",
      "camera_type": "G",
      "speed_limit": "40",
      "direction": "140",
      "status": "A",
      "rotatable": true,
      "gps_status": "+"
    },
    {
      "id": 218966,
      "latitude": 11.672733,
      "longitude": 76.258705,
      "city": "Sultan Bathery",
      "state": "Tamil Nadu",
      "street": "Sulthan batheri - Pulpally Road",
      "postal_code": "673592",
      "country": "IND",
      "type": "G40",
      "camera_type": "G",
      "speed_limit": "40",
      "direction": "340",
      "status": "A",
      "rotatable": true,
      "gps_status": "+"
    },
    {
      "id": 220120,
      "latitude": 11.708886,
      "longitude": 75.528404,
      "city": "Thalassery",
      "state": "Tamil Nadu",
      "street": "Kannur-Calicut-Valanchery Highway",
      "postal_code": "670100",
      "country": "IND",
      "type": "G40",
      "camera_type": "G",
      "speed_limit": "40",
      "direction": "355",
      "status": "A",
      "rotatable": true,
      "gps_status": "+"
    },
    {
      "id": 220121,
      "latitude": 11.69365,
      "longitude": 75.564163,
      "city": "Kerala",
      "state": "Tamil Nadu",
      "street": "Panoor - Kunjippalli Road",
      "postal_code": "670675",
      "country": "IND",
      "type": "G40",
      "camera_type": "G",
      "speed_limit": "40",
      "direction": "45",
      "status": "A",
      "rotatable": true,
      "gps_status": "+"
    },
    {
      "id": 219491,
      "latitude": 11.723525,
      "longitude": 76.15078,
      "city": "Kerala",
      "state": "Tamil Nadu",
      "street": "Panamaram-Nadavayal - Bathery Road",
      "postal_code": "673596",
      "country": "IND",
      "type": "G50",
      "camera_type": "G",
      "speed_limit": "50",
      "direction": "265",
      "status": "A",
      "rotatable": true,
      "gps_status": "+"
    },
    {
      "id": 219492,
      "latitude": 11.731046,
      "longitude": 76.072853,
      "city": "Kerala",
      "state": "Tamil Nadu",
      "street": "Mananthavady- Kalpetta road",
      "postal_code": "673124",
      "country": "IND",
      "type": "G40",
      "camera_type": "G",
      "speed_limit": "40",
      "direction": "45",
      "status": "A",
      "rotatable": true,
      "gps_status": "+"
    },
    {
      "id": 219467,
      "latitude": 11.741795,
      "longitude": 76.07283,
      "city": "Kerala",
      "state": "Tamil Nadu",
      "street": "Mananthavady- Kalpetta road",
      "postal_code": "670605",
      "country": "IND",
      "type": "G40",
      "camera_type": "G",
      "speed_limit": "40",
      "direction": "170",
      "status": "A",
      "rotatable": true,
      "gps_status": "+"
    },
    {
      "id": 219468,
      "latitude": 11.740048,
      "longitude": 76.120361,
      "city": "Kerala",
      "state": "Tamil Nadu",
      "street": "Panamaram-Nadavayal - Bathery Road",
      "postal_code": "673596",
      "country": "IND",
      "type": "G40",
      "camera_type": "G",
      "speed_limit": "40",
      "direction": "40",
      "status": "A",
      "rotatable": true,
      "gps_status": "+"
    },
    {
      "id": 218987,
      "latitude": 11.766663,
      "longitude": 75.478226,
      "city": "Kerala",
      "state": "Tamil Nadu",
      "street": "Kannur-Calicut-Valanchery Highway",
      "postal_code": "670106",
      "country": "IND",
      "type": "G40",
      "camera_type": "G",
      "speed_limit": "40",
      "direction": "15",
      "status": "A",
      "rotatable": true,
      "gps_status": "+"
    },
    {
      "id": 220091,
      "latitude": 11.790895,
      "longitude": 76.00219,
      "city": "Mananthavady",
      "state": "Tamil Nadu",
      "street": "Mananthavady- Kalpetta road",
      "postal_code": "670605",
      "country": "IND",
      "type": "G40",
      "camera_type": "G",
      "speed_limit": "40",
      "direction": "190",
      "status": "A",
      "rotatable": true,
      "gps_status": "+"
    },
    {
      "id": 219660,
      "latitude": 11.842216,
      "longitude": 76.057289,
      "city": "Kerala",
      "state": "Tamil Nadu",
      "street": "Thalassery-Bavali Road",
      "postal_code": "670646",
      "country": "IND",
      "type": "G50",
      "camera_type": "G",
      "speed_limit": "50",
      "direction": "115",
      "status": "A",
      "rotatable": true,
      "gps_status": "+"
    },
    {
      "id": 218986,
      "latitude": 11.853395,
      "longitude": 75.414497,
      "city": "Kadachira",
      "state": "Tamil Nadu",
      "street": "NH 66",
      "postal_code": "670007",
      "country": "IND",
      "type": "G40",
      "camera_type": "G",
      "speed_limit": "40",
      "direction": "65",
      "status": "A",
      "rotatable": true,
      "gps_status": "+"
    },
    {
      "id": 219659,
      "latitude": 11.855539,
      "longitude": 76.116417,
      "city": "Kerala",
      "state": "Tamil Nadu",
      "street": "SH33",
      "postal_code": "673549",
      "country": "IND",
      "type": "G50",
      "camera_type": "G",
      "speed_limit": "50",
      "direction": "180",
      "status": "A",
      "rotatable": true,
      "gps_status": "-"
    },
    {
      "id": 218934,
      "latitude": 11.9002,
      "longitude": 75.417732,
      "city": "Kannur",
      "state": "Tamil Nadu",
      "street": "Kannur - Mattannur Road",
      "postal_code": "670594",
      "country": "IND",
      "type": "G60",
      "camera_type": "G",
      "speed_limit": "60",
      "direction": "245",
      "status": "A",
      "rotatable": true,
      "gps_status": "+"
    },
    {
      "id": 219476,
      "latitude": 11.929434,
      "longitude": 75.504021,
      "city": "Kerala",
      "state": "Tamil Nadu",
      "street": "Kannur - Mattannur Road",
      "postal_code": "670652",
      "country": "IND",
      "type": "G60",
      "camera_type": "G",
      "speed_limit": "60",
      "direction": "95",
      "status": "A",
      "rotatable": true,
      "gps_status": "+"
    },
    {
      "id": 219481,
      "latitude": 11.928806,
      "longitude": 75.572174,
      "city": "Mattannur",
      "state": "Tamil Nadu",
      "street": "Thalassery - Coorg Highway",
      "postal_code": "670702",
      "country": "IND",
      "type": "G80",
      "camera_type": "G",
      "speed_limit": "80",
      "direction": "90",
      "status": "A",
      "rotatable": true,
      "gps_status": "+"
    },
    {
      "id": 219567,
      "latitude": 11.931284,
      "longitude": 75.569946,
      "city": "Kerala",
      "state": "Tamil Nadu",
      "street": "Kannur - Mattannur Road",
      "postal_code": "670652",
      "country": "IND",
      "type": "G60",
      "camera_type": "G",
      "speed_limit": "60",
      "direction": "300",
      "status": "A",
      "rotatable": true,
      "gps_status": "+"
    },
    {
      "id": 220016,
      "latitude": 11.954637,
      "longitude": 75.297844,
      "city": "Kerala",
      "state": "Tamil Nadu",
      "street": "Mattul main road",
      "postal_code": "670302",
      "country": "IND",
      "type": "G40",
      "camera_type": "G",
      "speed_limit": "40",
      "direction": "190",
      "status": "A",
      "rotatable": true,
      "gps_status": "+"
    },
    {
      "id": 219180,
      "latitude": 11.966625,
      "longitude": 75.396507,
      "city": "Kerala",
      "state": "Tamil Nadu",
      "street": "Putiyatheru - Irikkoor",
      "postal_code": "670601",
      "country": "IND",
      "type": "G40",
      "camera_type": "G",
      "speed_limit": "40",
      "direction": "170",
      "status": "A",
      "rotatable": true,
      "gps_status": "+"
    },
    {
      "id": 220122,
      "latitude": 11.963974,
      "longitude": 75.655029,
      "city": "Iritty",
      "state": "Tamil Nadu",
      "street": "Thalassery - Coorg Highway",
      "postal_code": "670703",
      "country": "IND",
      "type": "G40",
      "camera_type": "G",
      "speed_limit": "40",
      "direction": "235",
      "status": "A",
      "rotatable": true,
      "gps_status": "+"
    },
    {
      "id": 219177,
      "latitude": 11.9844,
      "longitude": 75.366051,
      "city": "Kerala",
      "state": "Tamil Nadu",
      "street": "Kannapuram-Dharmasala",
      "postal_code": "670563",
      "country": "IND",
      "type": "G40",
      "camera_type": "G",
      "speed_limit": "40",
      "direction": "70",
      "status": "A",
      "rotatable": true,
      "gps_status": "+"
    },
    {
      "id": 219178,
      "latitude": 11.98827,
      "longitude": 75.381622,
      "city": "Anthoor",
      "state": "Tamil Nadu",
      "street": "Parassininkkadavu Road",
      "postal_code": "670563",
      "country": "IND",
      "type": "G40",
      "camera_type": "G",
      "speed_limit": "40",
      "direction": "295",
      "status": "A",
      "rotatable": true,
      "gps_status": "+"
    },
    {
      "id": 219389,
      "latitude": 11.983188,
      "longitude": 75.676346,
      "city": "Kakkayangad",
      "state": "Tamil Nadu",
      "street": "Iritty - Nedumpoil Road",
      "postal_code": "670703",
      "country": "IND",
      "type": "G60",
      "camera_type": "G",
      "speed_limit": "60",
      "direction": "80",
      "status": "A",
      "rotatable": true,
      "gps_status": "+"
    },
    {
      "id": 219390,
      "latitude": 11.988151,
      "longitude": 75.676933,
      "city": "Iritty",
      "state": "Tamil Nadu",
      "street": "Thalassery - Coorg Highway",
      "postal_code": "670703",
      "country": "IND",
      "type": "G40",
      "camera_type": "G",
      "speed_limit": "40",
      "direction": "105",
      "status": "A",
      "rotatable": true,
      "gps_status": "+"
    },
    {
      "id": 219391,
      "latitude": 11.988209,
      "longitude": 75.676849,
      "city": "Iritty",
      "state": "Tamil Nadu",
      "street": "Thalassery - Coorg Highway",
      "postal_code": "670703",
      "country": "IND",
      "type": "G40",
      "camera_type": "G",
      "speed_limit": "40",
      "direction": "85",
      "status": "A",
      "rotatable": true,
      "gps_status": "+"
    },
    {
      "id": 219181,
      "latitude": 12.008114,
      "longitude": 75.369102,
      "city": "Taliparamba",
      "state": "Tamil Nadu",
      "street": "Kasargod-Kannur-Calicut Highway",
      "postal_code": "670141",
      "country": "IND",
      "type": "G80",
      "camera_type": "G",
      "speed_limit": "80",
      "direction": "80",
      "status": "A",
      "rotatable": true,
      "gps_status": "+"
    },
    {
      "id": 219179,
      "latitude": 12.009152,
      "longitude": 75.369026,
      "city": "Taliparamba",
      "state": "Tamil Nadu",
      "street": "Kasargod-Kannur-Calicut Highway",
      "postal_code": "670141",
      "country": "IND",
      "type": "G80",
      "camera_type": "G",
      "speed_limit": "80",
      "direction": "310",
      "status": "A",
      "rotatable": true,
      "gps_status": "+"
    },
    {
      "id": 219232,
      "latitude": 11.9942,
      "longitude": 75.449303,
      "city": "Kerala",
      "state": "Tamil Nadu",
      "street": "Putiyatheru - Irikkoor",
      "postal_code": "670601",
      "country": "IND",
      "type": "G60",
      "camera_type": "G",
      "speed_limit": "60",
      "direction": "350",
      "status": "A",
      "rotatable": true,
      "gps_status": "+"
    },
    {
      "id": 220505,
      "latitude": 11.991466,
      "longitude": 75.548729,
      "city": "Kerala",
      "state": "Tamil Nadu",
      "street": "Thaliparamba – Iritty Road",
      "postal_code": "670593",
      "country": "IND",
      "type": "G80",
      "camera_type": "G",
      "speed_limit": "80",
      "direction": "320",
      "status": "A",
      "rotatable": true,
      "gps_status": "+"
    },
    {
      "id": 220017,
      "latitude": 12.01988,
      "longitude": 75.245415,
      "city": "Pazhayangadi",
      "state": "Tamil Nadu",
      "street": "Pazhayangadi-Puthiyangadi Road",
      "postal_code": "670304",
      "country": "IND",
      "type": "G50",
      "camera_type": "G",
      "speed_limit": "50",
      "direction": "280",
      "status": "A",
      "rotatable": true,
      "gps_status": "+"
    },
    {
      "id": 220014,
      "latitude": 12.024314,
      "longitude": 75.266731,
      "city": "Pazhayangadi",
      "state": "Tamil Nadu",
      "street": "Pilathara - Pazhayangadi - Pappinisseri Road",
      "postal_code": "670358",
      "country": "IND",
      "type": "G50",
      "camera_type": "G",
      "speed_limit": "50",
      "direction": "260",
      "status": "A",
      "rotatable": true,
      "gps_status": "+"
    },
    {
      "id": 220015,
      "latitude": 12.031284,
      "longitude": 75.261909,
      "city": "Pazhayangadi",
      "state": "Tamil Nadu",
      "street": "unknown",
      "postal_code": "670358",
      "country": "IND",
      "type": "G40",
      "camera_type": "G",
      "speed_limit": "40",
      "direction": "220",
      "status": "A",
      "rotatable": true,
      "gps_status": "+"
    },
    {
      "id": 219048,
      "latitude": 12.04504,
      "longitude": 75.506554,
      "city": "Kerala",
      "state": "Tamil Nadu",
      "street": "Thaliparamba – Iritty Road",
      "postal_code": "670631",
      "country": "IND",
      "type": "G30",
      "camera_type": "G",
      "speed_limit": "30",
      "direction": "15",
      "status": "A",
      "rotatable": true,
      "gps_status": "+"
    },
    {
      "id": 219904,
      "latitude": 12.040689,
      "longitude": 75.659637,
      "city": "Kerala",
      "state": "Tamil Nadu",
      "street": "Hill Highway",
      "postal_code": "670705",
      "country": "IND",
      "type": "G40",
      "camera_type": "G",
      "speed_limit": "40",
      "direction": "355",
      "status": "A",
      "rotatable": true,
      "gps_status": "+"
    },
    {
      "id": 219900,
      "latitude": 12.038136,
      "longitude": 75.665169,
      "city": "Iritty",
      "state": "Tamil Nadu",
      "street": "Iritty Ulikkal Mattara Road",
      "postal_code": "670705",
      "country": "IND",
      "type": "G40",
      "camera_type": "G",
      "speed_limit": "40",
      "direction": "110",
      "status": "A",
      "rotatable": true,
      "gps_status": "+"
    },
    {
      "id": 219388,
      "latitude": 12.035169,
      "longitude": 75.713684,
      "city": "Kerala",
      "state": "Kerala",
      "street": "Thalassery - Coorg Highway",
      "postal_code": "670706",
      "country": "IND",
      "type": "G50",
      "camera_type": "G",
      "speed_limit": "50",
      "direction": "185",
      "status": "A",
      "rotatable": true,
      "gps_status": "+"
    },
    {
      "id": 219903,
      "latitude": 12.062298,
      "longitude": 75.576576,
      "city": "Kerala",
      "state": "Tamil Nadu",
      "street": "unknown",
      "postal_code": "670633",
      "country": "IND",
      "type": "G40",
      "camera_type": "G",
      "speed_limit": "40",
      "direction": "335",
      "status": "A",
      "rotatable": true,
      "gps_status": "+"
    },
    {
      "id": 219905,
      "latitude": 12.059708,
      "longitude": 75.582207,
      "city": "Payyavoor",
      "state": "Tamil Nadu",
      "street": "Hill Highway",
      "postal_code": "670633",
      "country": "IND",
      "type": "G40",
      "camera_type": "G",
      "speed_limit": "40",
      "direction": "110",
      "status": "A",
      "rotatable": true,
      "gps_status": "+"
    }
  ]
}